stop_id,stop_code,stop_name,stop_desc,stop_lat,stop_lon,zone_id,stop_url,location_type,parent_station,stop_timezone,wheelchair_boarding
HANMAIN,36,HANSON ST & E MAIN ST,,39.956658,-82.779026,,,,,,0
MOUWAYW,54,W MOUND ST & S WAYNE AVE,,39.938529,-83.063034,,,,,,0
MOREASS,281,MORSE CROSSING & EASTON WAY,,40.048134,-82.920269,,,,,,0
SOUTER4,411,COTA TRANSIT TERMINAL BAY 4,COTA SOUTH TERMINAL NORTHBOUND PATH & E RICH ST,39.957151,-82.999079,,,,,,0
SOUTER7,427,COTA TRANSIT TERMINAL BAY 7,COTA SOUTH TERMINAL SOUTHBOUND PATH & E MAIN ST,39.956667,-82.99885,,,,,,0
NORTER2,429,SPRING ST TERMINAL BAY 2,COTA NORTH TERMINAL ENTRANCE SVC & W SPRING ST,39.96588,-83.00242,,,,,,0
NORTER3,440,SPRING ST TERMINAL BAY 3,COTA NORTH TERMINAL ENTRANCE SVC & W SPRING ST,39.9658,-83.002408,,,,,,0
SOUTER9,454,COTA TRANSIT TERMINAL BAY 9,COTA SOUTH TERMINAL SOUTHBOUND PATH & E MAIN ST,39.956477,-82.998817,,,,,,0
NORTER4,455,SPRING ST TERMINAL BAY 4,COTA NORTH TERMINAL ENTRANCE SVC & W SPRING ST,39.96571,-83.002384,,,,,,0
SOUTER3,467,COTA TRANSIT TERMINAL BAY 3,COTA SOUTH TERMINAL SOUTHBOUND PATH & E RICH ST,39.957006,-82.998928,,,,,,0
SOUTER6,478,COTA TRANSIT TERMINAL BAY 6,COTA SOUTH TERMINAL NORTHBOUND PATH & E MAIN ST,39.956939,-82.999038,,,,,,0
SOUTER8,498,COTA TRANSIT TERMINAL BAY 8,COTA SOUTH TERMINAL NORTHBOUND PATH & E MAIN ST,39.956723,-82.998988,,,,,,0
NORTER1,525,SPRING ST TERMINAL BAY 1,COTA NORTH TERMINAL ENTRANCE SVC & W SPRING ST,39.96596,-83.002432,,,,,,0
NORTER5,568,SPRING ST TERMINAL BAY 5,COTA NORTH TERMINAL ENTRANCE SVC & W SPRING ST,39.96563,-83.002372,,,,,,0
TECAEPE,932,TECHCENTER DR & AEP,TECH CENTER DR & AEP,39.999861,-82.853012,,,,,,0
HIGHOSS,1059,S HIGH ST & HOSACK ST,,39.923024,-82.995541,,,,,,0
LIVBULW,1086,E LIVINGSTON AVE & BULEN AVE,,39.948841,-82.951646,,,,,,0
CLEMOUN,1089,CLEVELAND AVE & MOUNT VERNON AVE,,39.969546,-82.990366,,,,,,0
CLE2NDN,1094,CLEVELAND AVE & E 2ND AVE,,39.982316,-82.989371,,,,,,0
CLE11TN,1100,CLEVELAND AVE & E 11TH AVE,,39.993405,-82.981875,,,,,,0
CLECHIN,1101,CLEVELAND AVE & CHITTENDEN AVE,,39.995614,-82.979588,,,,,,0
CLEWINN,1102,CLEVELAND AVE & WINDSOR AVE,,39.997142,-82.977985,,,,,,0
CLE15TN,1103,CLEVELAND AVE & E 15TH AVE,,39.998476,-82.976807,,,,,,0
CLE17TN,1104,CLEVELAND AVE & E 17TH AVE,,40.000674,-82.975333,,,,,,0
RIDREDW,1105,RIDGECLIFF RD & REDDING RD,,40.023008,-83.070021,,,,,,0
CLEHUDN,1113,CLEVELAND AVE & E HUDSON ST,,40.014248,-82.966873,,,,,,0
CLEGENN,1116,CLEVELAND AVE & GENESSEE AVE,,40.019544,-82.964843,,,,,,0
CLEWEBN,1118,CLEVELAND AVE & E WEBER RD,,40.023416,-82.964558,,,,,,0
CLEOAKN,1123,CLEVELAND AVE & OAKLAND PARK AVE,,40.031029,-82.96393,,,,,,0
CLEHUYN,1124,CLEVELAND AVE & HUY RD,,40.03634,-82.962792,,,,,,0
INNDERE,1125,INNIS RD & DERBYSHIRE DR,,40.037116,-82.958274,,,,,,0
INNUSPW,1127,INNIS RD & US POSTAL SERVICE,2200 INNIS RD,40.037171,-82.95529,,,,,,0
CLEHUYS,1132,CLEVELAND AVE & HUY RD,CLEVELAND AVE & CLEVELAND INNIS PLZ,40.03597,-82.96329,,,,,,0
CLEOAKS,1134,CLEVELAND AVE & OAKLAND PARK AVE,,40.031499,-82.964162,,,,,,0
CLEWEBS,1139,CLEVELAND AVE & E WEBER RD,,40.022922,-82.964819,,,,,,0
CLEGENS,1141,CLEVELAND AVE & GENESSEE AVE,,40.019186,-82.965114,,,,,,0
CLEHUDS,1143,CLEVELAND AVE & E HUDSON ST,,40.013397,-82.967664,,,,,,0
CLE24TS,1147,CLEVELAND AVE & E 24TH AVE,,40.006458,-82.971931,,,,,,0
CLE17TS,1151,CLEVELAND AVE & E 17TH AVE,,39.999785,-82.976175,,,,,,0
CLE15TS,1152,CLEVELAND AVE & E 15TH AVE,,39.998829,-82.976728,,,,,,0
CLECHIS,1154,CLEVELAND AVE & CHITTENDEN AVE,,39.995186,-82.980244,,,,,,0
CLE11TS,1155,CLEVELAND AVE & E 11TH AVE,,39.993932,-82.981588,,,,,,0
CLE2NDS,1162,CLEVELAND AVE & 2ND AVE,CLEVELAND AVE & REYNOLDS AVE,39.981218,-82.989677,,,,,,0
CLEMOUS,1166,CLEVELAND AVE & MOUNT VERNON AVE,,39.969696,-82.990572,,,,,,0
BRODOUE,1167,E BROAD ST & S DOUGLAS ST,,39.964727,-82.977909,,,,,,0
BROMAPE,1168,E BROAD ST & MAPLEWOOD AVE,,39.97316,-82.901929,,,,,,0
BROCOLE,1169,E BROAD ST & COLLINGWOOD AVE,,39.973424,-82.89929,,,,,,0
BROHOLE,1170,E BROAD ST & HOLIDAY LANES,,39.975538,-82.879081,,,,,,0
BROCARE,1171,E BROAD ST & CARDINAL PARK DR,,39.977555,-82.860338,,,,,,0
BROCARW,1172,E BROAD ST & CARDINAL PARK DR,RAMP & E BROAD ST,39.977803,-82.860226,,,,,,0
HAMETNN,1174,S HAMILTON RD & ETNA RD,,39.964283,-82.875931,,,,,,0
HIGRUSN,1178,N HIGH ST & E RUSSELL ST,,39.975817,-83.003184,,,,,,0
HIG2NDN,1182,N HIGH ST & E 2ND AVE,,39.983376,-83.004678,,,,,,0
HIG5THN,1184,N HIGH ST & E 5TH AVE,,39.98771,-83.005538,,,,,,0
HIG6THN,1185,N HIGH ST & E 6TH AVE,,39.989166,-83.005815,,,,,,0
HIGEUCN,1186,N HIGH ST & EUCLID AVE,,39.991216,-83.006221,,,,,,0
HIGCHIN,1188,N HIGH ST & CHITTENDEN AVE,,39.996309,-83.007206,,,,,,0
HIG13TN,1189,N HIGH ST & E 13TH AVE,,39.997721,-83.007502,,,,,,0
HIG15TN,1190,N HIGH ST & E 15TH AVE,,39.999625,-83.007855,,,,,,0
HIGWOON,1192,N HIGH ST & W WOODRUFF AVE,,40.003558,-83.008638,,,,,,0
HIGLANN,1193,N HIGH ST & E LANE AVE,,40.006357,-83.009206,,,,,,0
HIGNORN,1194,N HIGH ST & E NORTHWOOD AVE,,40.007781,-83.009486,,,,,,0
HIGPATN,1195,N HIGH ST & PATTERSON AVE,,40.009899,-83.01004,,,,,,0
HIGBLAN,1196,N HIGH ST & E BLAKE AVE,,40.011646,-83.010496,,,,,,0
HIGHUDN,1197,N HIGH ST & E HUDSON ST,,40.014252,-83.01119,,,,,,0
HIGDODN,1198,N HIGH ST & E DODRIDGE ST,,40.016541,-83.011804,,,,,,0
HIGOLEN,1200,N HIGH ST & OLENTANGY ST,,40.019481,-83.012545,,,,,,0
HIGKELN,1201,N HIGH ST & E KELSO RD,,40.021564,-83.013096,,,,,,0
HIGWEBN,1202,N HIGH ST & E WEBER RD,,40.02431,-83.013839,,,,,,0
HIGPACN,1203,N HIGH ST & E PACEMONT RD,,40.026507,-83.014398,,,,,,0
HIGCOMN,1204,N HIGH ST & E COMO AVE,,40.028478,-83.014924,,,,,,0
HIGNORN1,1206,N HIGH ST & E NORTH BROADWAY,,40.031886,-83.015816,,,,,,0
HIGTORN,1208,N HIGH ST & E TORRENCE RD,,40.035032,-83.016671,,,,,,0
HIGGLENN,1209,N HIGH ST & GLENCOE RD,,40.037454,-83.017313,,,,,,0
HIGFALN,1210,N HIGH ST & FALLIS RD,,40.039254,-83.017795,,,,,,0
HIGACTN,1211,N HIGH ST & ACTON RD,,40.041035,-83.01828,,,,,,0
HIGGLEN,1213,N HIGH ST & GLENMONT AVE,,40.044793,-83.019296,,,,,,0
HIGINDN,1215,N HIGH ST & INDIAN SPRINGS DR,,40.04764,-83.02007,,,,,,0
HIGCOON,1216,N HIGH ST & E COOKE RD,,40.050198,-83.020077,,,,,,0
HIGSCHN,1217,N HIGH ST & E SCHREYER PL,,40.052422,-83.019955,,,,,,0
HIGWEIN,1218,N HIGH ST & E WEISHEIMER RD,,40.055277,-83.019798,,,,,,0
HIGBEAN,1219,N HIGH ST & E BEAUMONT RD,,40.057513,-83.019661,,,,,,0
HIGMORN,1222,N HIGH ST & MORSE RD,N HIGH ST & LELAND AVE,40.063342,-83.019328,,,,,,0
HIG522N,1224,5220 N HIGH ST,,40.068598,-83.019059,,,,,,0
HIGKANN,1225,N HIGH ST & E KANAWHA AVE,,40.07093,-83.018941,,,,,,0
HIGMEAN,1227,N HIGH ST & MEADOWLARK LN,,40.073382,-83.018814,,,,,,0
HIGSELN,1229,N HIGH ST & E SELBY BLVD,,40.077071,-83.018625,,,,,,0
HIGSOUTN,1230,N HIGH ST & E SOUTHINGTON AVE,,40.080395,-83.01845,,,,,,0
HIGSOUN,1232,HIGH ST & E SOUTH ST,,40.084187,-83.01825,,,,,,0
HIGNEWN,1233,HIGH ST & NEW ENGLAND AVE,,40.086573,-83.018118,,,,,,0
HIG161N,1234,N HIGH ST & STATE ROUTE 161,,40.088584,-83.01799,,,,,,0
HIGSTAFN,1235,HIGH ST & STAFFORD AVE,,40.090744,-83.017866,,,,,,0
HIGNORN3,1236,HIGH ST & E NORTH ST,,40.092803,-83.017751,,,,,,0
HIGLARN,1238,N HIGH ST & LARRIMER AVE,,40.099016,-83.017316,,,,,,0
HIGHALN,1240,N HIGH ST & HALLIGAN AVE,,40.103546,-83.017032,,,,,,0
NORWILSS,1243,NORTHWEST BLVD & WILSHIRE DR,,40.009715,-83.058079,,,,,,0
HARLAUS,1244,HARRISBURG PIKE & LAUREL AVE,,39.934631,-83.045167,,,,,,0
BRO1STS,1249,BROADWAY & 1ST AVE,,39.899417,-83.079513,,,,,,0
HIGSTAS,1251,S HIGH ST & W STATE ST,,39.960277,-83.000377,,,,,,0
HIGWORS,1252,N HIGH ST & WORTHINGTON GALENA RD,,40.095429,-83.017747,,,,,,0
HIGNORTS,1253,N HIGH ST & W NORTH ST,,40.092648,-83.017948,,,,,,0
HIGSTAFS,1254,HIGH ST & STAFFORD AVE,,40.091234,-83.018028,,,,,,0
HIG161S,1255,N HIGH ST & STATE ROUTE 161,,40.089132,-83.018152,,,,,,0
HIGNEWS,1256,HIGH ST & NEW ENGLAND AVE,,40.087016,-83.018292,,,,,,0
HIGSOUS,1257,N HIGH ST & W SOUTH ST,,40.08458,-83.018444,,,,,,0
HIGSOUTS,1259,N HIGH ST & W SOUTHINGTON AVE,,40.08033,-83.018664,,,,,,0
HIGSELS,1260,N HIGH ST & W SELBY BLVD,,40.07681,-83.018838,,,,,,0
HIGBROAS,1262,N HIGH ST & BROADMEADOWS BLVD,,40.073273,-83.019019,,,,,,0
HIGKANS,1263,N HIGH ST & W KANAWHA AVE,,40.071314,-83.019133,,,,,,0
HIGFENS,1264,N HIGH ST & FENWAY RD,,40.067693,-83.019303,,,,,,0
HIG521S,1265,5211 N HIGH ST,,40.06893,-83.019249,,,,,,0
HIGGRA2S,1266,N HIGH ST & GRACELAND BLVD 2,,40.064664,-83.019455,,,,,,0
HIGJEFS,1268,N HIGH ST & E JEFFREY PL,,40.061614,-83.019629,,,,,,0
HIGBEES,1270,N HIGH ST & W BEECHWOLD BLVD,,40.058728,-83.019781,,,,,,0
HIGSHES,1271,N HIGH ST & SHEFFIELD RD,,40.056118,-83.019938,,,,,,0
HIGHENS,1273,N HIGH ST & W HENDERSON RD,,40.051642,-83.020212,,,,,,0
HIGCOOS,1274,N HIGH ST & W COOKE RD,,40.049473,-83.020318,,,,,,0
HIGWESS,1275,N HIGH ST & WESTWOOD RD,,40.046863,-83.020049,,,,,,0
HIGBLES,1276,N HIGH ST & BLENHEIM RD,,40.044096,-83.019305,,,,,,0
HIGCHAS,1277,N HIGH ST & CHATHAM RD,,40.042088,-83.018763,,,,,,0
HIGAMAS,1278,N HIGH ST & AMAZON PL,,40.040292,-83.018283,,,,,,0
HIGNORMS,1279,N HIGH ST & NORTHMOOR PL,,40.036216,-83.017181,,,,,,0
HIGKENS,1280,N HIGH ST & W KENWORTH RD,,40.032885,-83.016321,,,,,,0
HIGNORS,1281,N HIGH ST & W NORTH BROADWAY ST,,40.030843,-83.015789,,,,,,0
HIGLAKS,1283,N HIGH ST & W LAKEVIEW AVE,,40.027287,-83.014846,,,,,,0
HIGWEBS,1284,N HIGH ST & W WEBER RD,,40.025289,-83.014298,,,,,,0
HIGCRES,1285,N HIGH ST & CRESTVIEW RD,,40.022577,-83.013608,,,,,,0
HIGOLES,1286,N HIGH ST & OLENTANGY ST,,40.019808,-83.012876,,,,,,0
HIGDODS,1287,N HIGH ST & W DODRIDGE ST,,40.016265,-83.01187,,,,,,0
HIGHUDS,1288,N HIGH ST & W HUDSON ST,,40.014071,-83.011303,,,,,,0
HIGMAYS,1290,N HIGH ST & W MAYNARD AVE,,40.011382,-83.010557,,,,,,0
HIGOAKS,1291,N HIGH ST & W OAKLAND AVE,,40.009241,-83.010039,,,,,,0
HIGNORWS,1292,N HIGH ST & W NORTHWOOD AVE,,40.007758,-83.009653,,,,,,0
HIG15TS,1295,N HIGH ST & E 15TH AVE,0 N HIGH ST & E 15TH AVE,40.000199,-83.008171,,,,,,0
HIG13TS,1296,N HIGH ST & E 13TH AVE,,39.998097,-83.007766,,,,,,0
HIGCHIS,1297,N HIGH ST & CHITTENDEN AVE,,39.995886,-83.007426,,,,,,0
HIG10TS,1298,N HIGH ST & W 10TH AVE,,39.993701,-83.006903,,,,,,0
HIGCLAS,1301,N HIGH ST & CLARK PL,,39.988958,-83.005951,,,,,,0
HIG5THS,1302,N HIGH ST & W 5TH AVE,,39.986727,-83.005542,,,,,,0
HIG4THS,1303,N HIGH ST & W 4TH AVE,,39.984884,-83.005178,,,,,,0
HIGHUBS,1306,N HIGH ST & W HUBBARD AVE,,39.978411,-83.003898,,,,,,0
HIGRUSS,1308,N HIGH ST & W RUSSELL ST,,39.975188,-83.003257,,,,,,0
COLRICW,1309,COLUMBUS ST & RICHARD AVE,,39.881532,-83.080865,,,,,,0
HARBLUN,1313,HARRISBURG PIKE & BLUE ROCK BLVD,,39.910841,-83.06946,,,,,,0
NEICOLN,1318,NEIL AVE & COLLINS AVE,,39.976175,-83.010784,,,,,,0
3RDNORW,1329,W 3RD AVE & NORTON AVE,,39.984587,-83.031896,,,,,,0
3RDOXLW,1330,W 3RD AVE & OXLEY RD,,39.984719,-83.034925,,,,,,0
GOO868W,1332,868 W GOODALE BLVD,,39.974388,-83.027011,,,,,,0
NORTHONW,1333,NORTHWEST BLVD & THORNWOOD PL,,39.986959,-83.040816,,,,,,0
NOR5THN,1334,NORTHWEST BLVD & W 5TH AVE,,39.988903,-83.040685,,,,,,0
HIGHALS,1336,N HIGH ST & HALLIGAN AVE,,40.103111,-83.017265,,,,,,0
WESWALS,1337,WESTERVILLE RD & WALLINGFORD AVE,,40.062004,-82.935192,,,,,,0
NORGLENW,1341,NORTHWEST BLVD & GLENN AVE,,39.9986,-83.052662,,,,,,0
NORBARNW,1342,NORTHWEST BLVD & BARRINGTON RD,,39.999737,-83.053991,,,,,,0
NORGUINW,1343,NORTHWEST BLVD & GUILFORD RD,,40.001605,-83.055287,,,,,,0
NORBRANW,1344,NORTHWEST BLVD & BRANDON RD,,40.003113,-83.05706,,,,,,0
MAI5THE,1347,E MAIN ST & S 5TH ST,,39.956868,-82.99236,,,,,,0
GRESURE,1356,GREENWAY AVE & SURREY PL,GREENWAY AVE S & SURREY PL,39.973084,-82.952309,,,,,,0
NELAVAN,1358,N NELSON RD & AVALON PL,,39.98239,-82.942656,,,,,,0
NELOPPN,1360,N NELSON RD & MARGARET AVE,N NELSON RD & E 5TH AVE,39.984446,-82.941632,,,,,,0
NELAVAS,1363,N NELSON RD & AVALON PL,,39.981874,-82.943066,,,,,,0
HIGLARS,1379,N HIGH ST & LARRIMER AVE,,40.098797,-83.017525,,,,,,0
5TH220W,1382,2200 W 5TH AVE,,39.989707,-83.065633,,,,,,0
5TH2200E,1384,2200 W 5TH AVE,,39.989587,-83.065167,,,,,,0
HIGSTEN,1385,S HIGH ST & STEWART AVE,,39.94183,-82.996578,,,,,,0
3RDNWBE,1395,W 3RD AVE & NORTHWEST BLVD,,39.984784,-83.038557,,,,,,0
3RDOXLE,1397,W 3RD AVE & OXLEY RD,,39.984625,-83.034698,,,,,,0
NEICOLS,1408,NEIL AVE & COLLINS AVE,0 NEIL AVE & W POPLAR AVE,39.976047,-83.010985,,,,,,0
NEIGOOS,1409,NEIL AVE & W GOODALE ST,,39.974434,-83.010665,,,,,,0
4TH803N,1416,803 N 4TH ST,,39.979395,-82.998048,,,,,,0
4TH2NDN,1418,N 4TH ST & E 2ND AVE,,39.98259,-82.998665,,,,,,0
4THDETN,1419,N 4TH ST & DETROIT AVE,N FOURTH ST & DETROIT AVE,39.984468,-82.999027,,,,,,0
4TH9THN,1423,N 4TH ST & E 9TH AVE,,39.993079,-82.99911,,,,,,0
4THCHIN,1425,N 4TH ST & CHITTENDEN AVE,,39.994696,-82.998986,,,,,,0
4TH15TN,1427,N 4TH ST & E 15TH AVE,,39.999438,-82.998667,,,,,,0
4TH18TN,1428,N 4TH ST & E 18TH AVE,,40.002155,-82.998473,,,,,,0
4THLANN,1430,N 4TH ST & E LANE AVE,,40.005475,-82.998246,,,,,,0
4THALDN,1432,4TH ST & ALDEN AVE,N 4TH ST & ALDEN AVE,40.008519,-82.998036,,,,,,0
4THMAYN,1433,N 4TH ST & MAYNARD AVE,N 4TH ST & CHILCOTE AVE,40.011191,-82.997857,,,,,,0
4THCLIN,1434,N 4TH ST & CLINTON ST,,40.01333,-82.997678,,,,,,0
HUDSUMW,1436,E HUDSON ST & SUMMIT ST,,40.015181,-83.00046,,,,,,0
INDARCN,1438,INDIANOLA AVE & E ARCADIA AVE,,40.017259,-83.001988,,,,,,0
INDPARN,1439,INDIANOLA AVE & PARKVIEW DR,,40.019854,-83.001785,,,,,,0
INDTULN,1441,INDIANOLA AVE & E TULANE RD,,40.022607,-83.001623,,,,,,0
INDWEBN,1442,INDIANOLA AVE & E WEBER RD,,40.024296,-83.001518,,,,,,0
INDMILN,1443,INDIANOLA AVE & MILFORD AVE,,40.026042,-83.001379,,,,,,0
INDCOMN,1444,INDIANOLA AVE & E COMO AVE,,40.02792,-83.001222,,,,,,0
INDCLIN,1445,INDIANOLA AVE & CLINTON HGTS AVE,,40.029853,-83.001064,,,,,,0
INDNORN,1446,INDIANOLA AVE & E N BROADWAY,INDIANOLA AVE & E NORTH BROADWAY,40.031598,-83.000913,,,,,,0
INDPIEN,1448,INDIANOLA AVE & PIEDMONT RD,,40.034696,-83.000715,,,,,,0
INDTORN,1449,INDIANOLA AVE & TORRENCE RD,,40.036676,-83.00057,,,,,,0
INDFALN,1450,INDIANOLA AVE & FALLIS RD,,40.03886,-83.000424,,,,,,0
INDNORTN,1452,INDIANOLA AVE & NORTHRIDGE RD,,40.04192,-83.000169,,,,,,0
INDGLEN,1453,INDIANOLA AVE & GLENMONT AVE,,40.044062,-82.999988,,,,,,0
INDCOON,1454,INDIANOLA AVE & E COOKE RD,,40.049243,-82.999782,,,,,,0
INDWEIN,1457,INDIANOLA AVE & E WEISHEIMER RD,,40.054283,-83.000232,,,,,,0
INDBEAN,1458,INDIANOLA AVE & E BEAUMONT RD,,40.057202,-83.000498,,,,,,0
INDJEFN,1460,INDIANOLA AVE & E JEFFREY PL,,40.060604,-83.000942,,,,,,0
MORCOLW,1461,MORSE RD & COLERAIN AVE,,40.061842,-83.00335,,,,,,0
MORBEEW,1462,MORSE RD & BEECH HILL AVE,,40.06196,-83.006136,,,,,,0
MORELKW,1464,MORSE RD & ELKS DR,,40.062156,-83.010881,,,,,,0
MORFOSW,1465,MORSE RD & FOSTER ST,,40.062311,-83.014214,,,,,,0
MORBEECW,1466,MORSE RD & BEECHMONT DR,,40.06239,-83.016361,,,,,,0
BROOLDW,1467,W BROAD ST & OLD VILLAGE RD,,39.95262,-83.124237,,,,,,0
MORFOSE,1470,MORSE RD & FOSTER ST,,40.06215,-83.01409,,,,,,0
MORELKE,1471,MORSE RD & ELKS DR,,40.062042,-83.011365,,,,,,0
MORSHAE,1472,MORSE RD & SHARON AVE,,40.0619,-83.008018,,,,,,0
MORCOLE,1474,MORSE RD & COLERAIN AVE,,40.061695,-83.003222,,,,,,0
INDJEFS,1475,INDIANOLA AVE & E JEFFREY PL,,40.060433,-83.001078,,,,,,0
HIGDELS,1476,S HIGH ST & DELRAY RD,,39.910577,-82.995482,,,,,,0
INDBEAS,1478,INDIANOLA AVE & E BEAUMONT RD,,40.056847,-83.000619,,,,,,0
HIGHIGHN,1479,N HIGH ST & HIGHLAND AVE,,40.105475,-83.016915,,,,,,0
INDSCHS,1480,INDIANOLA AVE & SCHREYER PL,,40.051891,-83.000177,,,,,,0
INDCOOS,1481,INDIANOLA AVE & E COOKE RD,,40.04822,-82.999933,,,,,,0
INDGLES,1482,INDIANOLA AVE & GLENMONT AVE,,40.044368,-83.000117,,,,,,0
INDNORTS,1483,INDIANOLA AVE & NORTHRIDGE RD,,40.042155,-83.00031,,,,,,0
INDFALS,1485,INDIANOLA AVE & FALLIS RD,,40.038649,-83.000604,,,,,,0
INDTORS,1486,INDIANOLA AVE & E TORRENCE RD,,40.036477,-83.000751,,,,,,0
INDOAKS,1488,INDIANOLA AVE & OAKLAND PARK AVE,,40.033168,-83.000969,,,,,,0
INDNORS,1489,INDIANOLA AVE & E NORTH BROADWAY,,40.031052,-83.001148,,,,,,0
INDWALS,1490,INDIANOLA AVE & WALHALLA RD,,40.028895,-83.001361,,,,,,0
INDMELS,1491,INDIANOLA AVE & MELROSE AVE,,40.025424,-83.001611,,,,,,0
INDTIBS,1492,INDIANOLA AVE & TIBET RD,,40.02372,-83.001732,,,,,,0
INDCRES,1493,INDIANOLA AVE & CRESTVIEW RD,,40.02209,-83.001844,,,,,,0
INDOLES,1494,INDIANOLA AVE & OLENTANGY ST,,40.020421,-83.00196,,,,,,0
INDARCS,1495,INDIANOLA AVE & E ARCADIA AVE,0 INDIANOLA AVE & ARCADIA AVE,40.017604,-83.002127,,,,,,0
HUDSUME,1497,E HUDSON ST & SUMMIT ST,,40.015091,-83.000867,,,,,,0
SUMMAYS,1499,SUMMIT ST & E MAYNARD AVE,,40.01091,-83.000437,,,,,,0
SUMALDS,1501,SUMMIT ST & ALDEN AVE,,40.007838,-83.000717,,,,,,0
SUMLANS,1502,SUMMIT ST & E LANE AVE,,40.005446,-83.000878,,,,,,0
SUM18TS,1504,SUMMIT ST & E 18TH AVE,0 SUMMIT ST & E 18TH AVE,40.002527,-83.001067,,,,,,0
SUM15TS,1505,SUMMIT ST & E 15TH AVE,SUMMIT ST & ALY,39.999462,-83.001232,,,,,,0
SUMCHIS,1507,SUMMIT ST & CHITTENDEN AVE,SUMMIT ST & ALY,39.995232,-83.001522,,,,,,0
SUM7THS,1510,SUMMIT ST & E 7TH AVE, Unit CANNON DR & E 7TH AVE,39.989817,-83.001923,,,,,,0
SUM5THS,1511,SUMMIT ST & E 5TH AVE,0 SUMMIT ST & E 5TH AVE,39.98652,-83.002091,,,,,,0
SUM2NDS,1513,SUMMIT ST & E 2ND AVE,,39.982271,-83.001246,,,,,,0
SUMWARS,1515,SUMMIT ST & WARREN ST,,39.979089,-83.000634,,,,,,0
CLECOON1,1517,CLEVELAND AVE & COOKE RD,CLEVELAND AVE & PEGG RD,40.045281,-82.957589,,,,,,0
5THDENW,1518,W 5TH AVE & DENNISON AVE,,39.987259,-83.008126,,,,,,0
5THHIGW,1519,W 5TH AVE & HIGHLAND ST,,39.987357,-83.011101,,,,,,0
5THNEIW,1520,W 5TH AVE & NEIL AVE,0 W 5TH AVE & UNNAMED ALY,39.987438,-83.013482,,,,,,0
5THMICW,1522,W 5TH AVE & MICHIGAN AVE,,39.98754,-83.016423,,,,,,0
5THPERW,1523,W 5TH AVE & PERRY ST,,39.987629,-83.018609,,,,,,0
5THTISW,1524,W 5TH AVE & TISDALE,,39.987729,-83.021208,,,,,,0
5THOLEW,1525,W 5TH AVE & OLENTANGY RIVER RD,,39.987937,-83.026456,,,,,,0
5THHESW,1527,W 5TH AVE & HESS ST,0 W 5TH AVE & NORTON AVE,39.988226,-83.032154,,,,,,0
5THKENW,1529,W 5TH AVE & KENNY RD,,39.988374,-83.035242,,,,,,0
5THDOTW,1530,W 5TH AVE & DOTEN AVE,,39.988505,-83.037731,,,,,,0
5THNORTW,1531,W 5TH AVE & NORTHWEST BLVD,,39.988648,-83.040539,,,,,,0
5THGRANW,1532,W 5TH AVE & GRANDVIEW AVE,,39.988841,-83.044254,,,,,,0
5THFAIW,1533,W 5TH AVE & FAIRVIEW AVE,,39.988992,-83.04754,,,,,,0
5THASHW,1535,W 5TH AVE & ASHLAND AVE,,39.989128,-83.050178,,,,,,0
5THWESW,1536,W 5TH AVE & WESTWOOD AVE,,39.989212,-83.052684,,,,,,0
5THWYAW,1537,W 5TH AVE & WYANDOTTE RD,,39.989314,-83.055634,,,,,,0
5THCAMW,1538,W 5TH AVE & CAMBRIDGE BLVD,0 W 5TH AVE & FERNWOOD AVE,39.989423,-83.058049,,,,,,0
ARLCHEN,1540,ARLINGTON AVE & W CHELSEA RD,,39.991205,-83.060178,,,,,,0
ARLCAMN,1541,ARLINGTON AVE & CAMBRIDGE BLVD,ALRINGTON AVE & GREENWICH ST,39.993056,-83.060315,,,,,,0
ARLEDGN,1543,ARLINGTON AVE & EDGEMONT RD,,39.996421,-83.060571,,,,,,0
ARLMALN,1544,ARLINGTON AVE & N MALLWAY DR,,39.999068,-83.061655,,,,,,0
ARLTEWN,1545,ARLINGTON AVE & TEWKSBURY RD,,40.001118,-83.063527,,,,,,0
ARLWICN,1546,ARLINGTON AVE & WICKFORD RD,,40.002409,-83.065091,,,,,,0
TRELANN,1550,TREMONT RD & W LANE AVE,,40.007735,-83.070117,,,,,,0
TREWILN,1551,TREMONT RD & WILSHIRE DR,,40.009977,-83.069814,,,,,,0
TRENORN,1552,TREMONT RD & NORTHAM RD,,40.012098,-83.068879,,,,,,0
TREFARN,1553,TREMONT RD & FARLEIGH RD,,40.014795,-83.066479,,,,,,0
TREINCN,1555,TREMONT RD & INCHCLIFF RD,,40.017481,-83.064131,,,,,,0
TREZOLN,1556,TREMONT RD & ZOLLINGER RD,,40.0188,-83.062979,,,,,,0
TRELANGN,1557,TREMONT RD & LANGHAM RD,,40.020779,-83.061179,,,,,,0
RIDTREW,1558,RIDGECLIFF RD & TREMONT RD,,40.022546,-83.060272,,,,,,0
RIDSOMW,1559,RIDGECLIFF RD & SOMERFORD RD,,40.022702,-83.063351,,,,,,0
RIDCOLW,1560,RIDGECLIFF RD & COLCHESTER RD,,40.022841,-83.066518,,,,,,0
RIDREDE,1574,RIDGECLIFF RD & REDDING RD,,40.022882,-83.069169,,,,,,0
RIDCOLE,1575,RIDGECLIFF RD & COLCHESTER RD,,40.022751,-83.06629,,,,,,0
RIDSOME,1576,RIDGECLIFF RD & SOMERFORD RD,,40.022587,-83.062997,,,,,,0
TREZOLS,1579,TREMONT RD & ZOLLINGER RD,,40.019214,-83.062832,,,,,,0
WESFREN,1580,WESTERVILLE RD & FRENCHPARK DR,,40.069666,-82.929332,,,,,,0
WESVALN,1581,WESTERVILLE RD & VALLEY PARK AVE,,40.06596,-82.93206,,,,,,0
4THTOWN,1586,S 4TH ST & E TOWN ST,,39.958965,-82.995424,,,,,,0
TREONAS,1587,TREMONT RD & ONANDAGA DR,,40.009603,-83.06999,,,,,,0
TRELANS,1588,TREMONT RD & W LANE AVE,,40.007573,-83.070222,,,,,,0
ARLTRES,1589,ARLINGTON AVE & TREMONT RD,,40.005036,-83.069104,,,,,,0
ARLWESSW,1591,ARLINGTON AVE & WESTOVER RD,,40.002584,-83.066107,,,,,,0
ARLTEWS,1592,ARLINGTON AVE & TEWKSBURY RD,,40.001279,-83.063838,,,,,,0
ARLGUIS,1593,ARLINGTON AVE & GUILFORD RD,,39.999932,-83.06262,,,,,,0
ARLWALS,1594,ARLINGTON AVE & WALTHAM RD,,39.997667,-83.060996,,,,,,0
ARLCAMS,1596,ARLINGTON AVE & CAMBRIDGE BLVD,,39.993478,-83.060487,,,,,,0
ARLCHES,1597,ARLINGTON AVE & W CHELSEA RD,,39.991424,-83.060342,,,,,,0
ARL5THS,1598,ARLINGTON AVE & W 5TH AVE,,39.989223,-83.060182,,,,,,0
5THCAME,1599,W 5TH AVE & CAMBRIDGE BLVD,,39.989306,-83.057922,,,,,,0
5THWYAE,1600,W 5TH AVE & WYANDOTTE RD,,39.989213,-83.055492,,,,,,0
5THWESE,1601,W 5TH AVE & WESTWOOD AVE,,39.989104,-83.052853,,,,,,0
5THASHE,1602,W 5TH AVE & ASHLAND AVE,,39.989003,-83.050354,,,,,,0
5THFAIE,1604,W 5TH AVE & FAIRVIEW AVE,,39.988888,-83.047632,,,,,,0
5THGRANE,1605,W 5TH AVE & GRANDVIEW AVE,,39.988748,-83.044738,,,,,,0
5THNORTE,1606,W 5TH AVE & NORTHWEST BLVD,,39.988558,-83.041136,,,,,,0
5THDOTE,1607,W 5TH AVE & DOTEN AVE,,39.988403,-83.038092,,,,,,0
5THEASE,1608,W 5TH AVE & EASTVIEW AVE,,39.988292,-83.035806,,,,,,0
5THHOLE,1609,W 5TH AVE & HOLLY AVE,,39.988178,-83.033565,,,,,,0
5THEDGE,1611,W 5TH AVE & EDGEHILL RD,,39.987943,-83.028781,,,,,,0
5THOLEE,1612,W 5TH AVE & OLENTANGY RIVER RD,W 5TH AVE & OLENTANGY RIV RD,39.987793,-83.02586,,,,,,0
5THPERE,1614,W 5TH AVE & PERRY ST,,39.987553,-83.019052,,,,,,0
5THMICE,1615,W 5TH AVE & MICHIGAN AVE,,39.987468,-83.016835,,,,,,0
5THHIGE,1618,W 5TH AVE & HIGHLAND ST,,39.987242,-83.011099,,,,,,0
5THDENE,1619,W 5TH AVE & DENNISON AVE,,39.987145,-83.008519,,,,,,0
CLEFUJN,1620,CLEVELAND AVE & FUJI DR,,40.088773,-82.950661,,,,,,0
MARHAME,1625,MARTIN LUTHER KING & HAMILTON AVE,,39.968754,-82.981547,,,,,,0
MOUGARE,1627,MOUNT VERNON AVE & N GARFIELD AVE,,39.970936,-82.979484,,,,,,0
MOU18TE,1629,MOUNT VERNON AVE & N 18TH ST,,39.971631,-82.975808,,,,,,0
MOU20TE,1630,MOUNT VERNON AVE & N 20TH ST,,39.972029,-82.973538,,,,,,0
MOU22NE,1631,MOUNT VERNON AVE & N 22ND ST,,39.97246,-82.971175,,,,,,0
MOUCHAE,1632,MOUNT VERNON AVE & N CHAMPION AVE,,39.972986,-82.968262,,,,,,0
MOUBURE,1634,MOUNT VERNON AVE & BURT ST,,39.973811,-82.963418,,,,,,0
MOUTAYE,1635,MOUNT VERNON AVE & TAYLOR AVE,,39.974158,-82.961352,,,,,,0
NELMARGS,1637,N NELSON RD & MARGARET AVE,,39.984815,-82.941702,,,,,,0
5THLEONE,1640,E 5TH AVE & LEONARD AVE,,39.984974,-82.956345,,,,,,0
MAIHIGE,1644,E MAIN ST & S HIGH ST,,39.956175,-82.998467,,,,,,0
MAI4THE,1645,E MAIN ST & S 4TH ST,,39.956601,-82.994653,,,,,,0
5THCASE,1646,E 5TH AVE & N CASSADY AVE,,39.985007,-82.93113,,,,,,0
5THALTE,1648,E 5TH AVE & ALTON AVE,,39.984877,-82.926493,,,,,,0
5THRARE,1649,E 5TH AVE & RARIG AVE,,39.9848,-82.924026,,,,,,0
CLEOLDS,1652,S CLEVELAND AVE & OLD COACH RD,,40.119886,-82.948611,,,,,,0
CLE340S1,1653,340 S CLEVELAND AVE,,40.116699,-82.948824,,,,,,0
7THSTEE,1654,E 7TH AVE & STELZER RD,,39.98621,-82.913672,,,,,,0
OSB5THS,1655,OSBORN AVE & E 5TH AVE,,39.984794,-82.912767,,,,,,0
5THKRUW,1657,E 5TH AVE & KRUMM AVE,,39.984723,-82.917591,,,,,,0
5THSTERW,1658,E 5TH AVE & STERLING AVE,,39.984792,-82.920606,,,,,,0
5THRARW,1659,E 5TH AVE & RARIG AVE,,39.984907,-82.923517,,,,,,0
5THALTW,1660,E 5TH AVE & ALTON AVE,,39.985,-82.926675,,,,,,0
5THCASW,1662,E 5TH AVE & N CASSADY AVE,,39.98516,-82.931291,,,,,,0
MOUTAYW,1673,MOUNT VERNON AVE & TAYLOR AVE,,39.974216,-82.96159,,,,,,0
MOUGRAHW,1674,MOUNT VERNON AVE & GRAHAM ST,,39.973803,-82.964046,,,,,,0
MOUCHAW,1675,MOUNT VERNON AVE & N CHAMPION AVE,,39.973055,-82.968462,,,,,,0
MOU22NW,1676,MOUNT VERNON AVE & N 22ND ST,,39.97256,-82.97123,,,,,,0
MOUMIAW,1678,MOUNT VERNON AVE & MIAMI AVE,,39.972016,-82.974449,,,,,,0
MOCBREW1,1681,MOCK RD & BRENTNELL AVE,0 MOCK RD & BRENTNELL BLVD,40.011474,-82.947445,,,,,,0
MARSTCW,1682,MARTIN LUTHER KING & ST CLAIR AVE,,39.970839,-82.98057,,,,,,0
SPRHAMW,1683,E SPRING ST & HAMILTON AVE,,39.968773,-82.982593,,,,,,0
CLECOPS,1684,S CLEVELAND AVE & COPELAND MILL RD,0 S CLEVELAND AVE & MOUNT CARMEL ST. ANN'S PATH,40.113446,-82.949121,,,,,,0
CLEHOMS,1686,CLEVELAND AVE & HOME ACRE DR,,40.098286,-82.950151,,,,,,0
NEIHUBN,1691,NEIL AVE & W HUBBARD AVE,,39.9783,-83.011211,,,,,,0
NEI1STN,1692,NEIL AVE & W 1ST AVE,,39.98027,-83.0116,,,,,,0
NEI3RDN,1693,NEIL AVE & W 3RD AVE,,39.983542,-83.012246,,,,,,0
NEI4THN,1694,NEIL AVE & W 4TH AVE,,39.985359,-83.012611,,,,,,0
NEI5THN,1695,NEIL AVE & W 5TH AVE,,39.987152,-83.012955,,,,,,0
NEI8THN,1706,NEIL AVE & W 8TH AVE,,39.992307,-83.013969,,,,,,0
NEI7THS,1707,NEIL AVE & W 7TH AVE,,39.989545,-83.013613,,,,,,0
NEI5THS,1708,NEIL AVE & W 5TH AVE,,39.987513,-83.013209,,,,,,0
NEI4THS,1709,NEIL AVE & W 4TH AVE,,39.985741,-83.012864,,,,,,0
NEI2NDS,1710,NEIL AVE & W 2ND AVE,,39.982191,-83.01217,,,,,,0
NEIWILS,1711,NEIL AVE & WILBER AVE,,39.979509,-83.01164,,,,,,0
KIMMERE,1712,KIMBERLY PKWY N & MERCEDES LN,,39.926122,-82.886356,,,,,,0
11TINDE,1717,E 11TH AVE & INDIANOLA AVE,,39.994516,-83.002482,,,,,,0
11T4THE,1719,E 11TH AVE & N 4TH ST,,39.994361,-82.999374,,,,,,0
11TESSE,1722,E 11TH AVE & ESSEX AVE,,39.99387,-82.98703,,,,,,0
HAM17TN,1724,HAMILTON AVE & E 17TH AVE,,40.00085,-82.979845,,,,,,0
HAMDUXN,1729,HAMILTON AVE & DUXBERRY AVE,,40.009017,-82.979304,,,,,,0
HAMCLIN,1730,HAMILTON AVE & CLINTON ST,,40.011967,-82.979102,,,,,,0
MCGHUDN,1732,MCGUFFEY RD & E HUDSON ST,,40.014757,-82.981369,,,,,,0
MCGBRIN,1733,MCGUFFEY RD & BRIARWOOD AVE,MCGUFFEY RD & REPUBLIC AVE,40.016906,-82.981416,,,,,,0
MCGOPPN,1734,MCGUFFEY RD & GENESSEE AVE,MCGUFFEY RD & MINNESOTA AVE,40.019609,-82.981454,,,,,,0
MCGABEN,1735,MCGUFFEY RD & ABERDEEN AVE,,40.021288,-82.981472,,,,,,0
MCGWEBN,1736,MCGUFFEY RD & E WEBER RD,,40.023266,-82.981388,,,,,,0
MCGDELN,1737,MCGUFFEY RD & DELNO AVE,,40.025755,-82.98114,,,,,,0
MCGWELN,1738,MCGUFFEY RD & WELDON AVE,,40.027548,-82.980959,,,,,,0
MCGNORN,1739,MCGUFFEY RD & E NORTH BROADWAY,,40.030114,-82.980694,,,,,,0
MCGOAKN,1740,MCGUFFEY RD & OAKLAND PARK AVE,,40.031737,-82.980525,,,,,,0
OAKATWW,1742,OAKLAND PARK AVE & ATWOOD TERRACE,,40.032315,-82.983817,,,,,,0
OAKHIAW,1743,OAKLAND PARK AVE & HIAWATHA ST,OAKLAND PARK AVE & OSCEOLA DR,40.032433,-82.986046,,,,,,0
OAKMAIW,1744,OAKLAND PARK AVE & MAIZE RD,,40.03256,-82.989138,,,,,,0
MAIURAN,1745,MAIZE RD & URANA AVE,,40.035588,-82.989258,,,,,,0
MAINORTN,1748,MAIZE RD & NORTHRIDGE RD,,40.041595,-82.98875,,,,,,0
OAKKARW,1750,OAKLAND PARK AVE & KARL RD,,40.032023,-82.97793,,,,,,0
KARHUYN,1751,KARL RD & HUY RD,,40.035553,-82.977859,,,,,,0
KARPAUN,1752,KARL RD & PAULINE AVE,,40.037752,-82.977664,,,,,,0
KARACTN,1753,KARL RD & ACTON RD,,40.039682,-82.977486,,,,,,0
GEODELN,1755,GEORGESVILLE RD & INDUSTRIAL MILE,,39.944877,-83.111356,,,,,,0
5THARLE,1756,W 5TH AVE & ARLINGTON AVE,,39.989398,-83.060373,,,,,,0
MAINORN,1759,MAIZE RD & NORRIS DR,,40.044437,-82.988547,,,,,,0
MAICOON,1760,MAIZE RD & E COOKE RD,,40.047414,-82.988293,,,,,,0
MAIHILN,1761,MAIZE RD & HILLSDALE DR,,40.050861,-82.988031,,,,,,0
MAIGARN,1763,MAIZE RD & GARDEN RD,,40.054613,-82.98773,,,,,,0
MAISHAN,1764,MAIZE RD & SHANLEY DR,,40.056695,-82.987547,,,,,,0
MAIMORS,1767,MAIZE RD & MORSE RD,,40.059884,-82.987462,,,,,,0
KARNORN,1771,KARL RD & NORTHLAND PARK AVE,,40.057715,-82.976353,,,,,,0
MAIGARS,1781,MAIZE RD & GARDEN RD,,40.054562,-82.987886,,,,,,0
MAICARBS,1782,MAIZE RD & CARBONE DR,,40.05193,-82.98808,,,,,,0
MAICOOS,1784,MAIZE RD & E COOKE RD,,40.047917,-82.988413,,,,,,0
MAINORS,1785,MAIZE RD & NORRIS DR,,40.044491,-82.988682,,,,,,0
MAIZEBS,1789,MAIZE RD & ZEBULON AVE,,40.03883,-82.989131,,,,,,0
MAIURAS,1791,MAIZE RD & URANA AVE,,40.035204,-82.989424,,,,,,0
MAIDUNS,1792,MAIZE RD & DUNEDIN,MAIZE RD & DUNEDIN RD,40.033292,-82.989582,,,,,,0
OAKOSCE,1793,OAKLAND PARK AVE & OSCEOLA DR,,40.032392,-82.987978,,,,,,0
OAKATWE,1795,OAKLAND PARK AVE & ATWOOD TERRACE,,40.032219,-82.984202,,,,,,0
MOUHIGW1,1797,E MOUND ST & S HIGH ST,0 E MOUND ST & S HIGH ST,39.954907,-82.998932,,,,,,0
KARACTS,1803,KARL RD & ACTON RD,,40.039351,-82.977654,,,,,,0
KARCARS,1804,KARL RD & CAROLYN AVE,,40.037051,-82.977854,,,,,,0
KARURAS,1805,KARL RD & URANA AVE,,40.034687,-82.978059,,,,,,0
KAROAKS,1806,KARL RD & OAKLAND PARK AVE,,40.032374,-82.978246,,,,,,0
MCGOAKS,1807,MCGUFFEY RD & OAKLAND PARK AVE,,40.031471,-82.980699,,,,,,0
MCGNORS,1808,MCGUFFEY RD & E NORTH BROADWAY,,40.03004,-82.98084,,,,,,0
MCGWELS,1809,MCGUFFEY RD & WELDON AVE,,40.027795,-82.981074,,,,,,0
MCGCOMS,1810,MCGUFFEY RD & E COMO AVE,,40.025693,-82.981287,,,,,,0
MCGWEBS,1811,MCGUFFEY RD & E WEBER RD,,40.023642,-82.981524,,,,,,0
MCGABES,1812,MCGUFFEY RD & ABERDEEN AVE,,40.021567,-82.98162,,,,,,0
MCGGENS,1813,MCGUFFEY RD & GENESSEE AVE,,40.019174,-82.981586,,,,,,0
MCGBRIS,1814,MCGUFFEY RD & BRIARWOOD AVE,0 MCGUFFEY RD & REPUBLIC AVE,40.016732,-82.981556,,,,,,0
MCGCLIS,1816,MCGUFFEY RD & CLINTON ST,,40.012316,-82.981589,,,,,,0
HAMDUXS,1818,HAMILTON AVE & DUXBERRY AVE,,40.008869,-82.979444,,,,,,0
HAM21SS,1820,HAMILTON AVE & E 21ST AVE,,40.003994,-82.979764,,,,,,0
STAHIAN,1821,S STATE ST & HIAWATHA AVE,,40.117892,-82.928534,,,,,,0
11TESSW,1825,E 11TH AVE & ESSEX AVE,,39.993999,-82.987679,,,,,,0
KAROAKN,1827,KARL RD & OAKLAND PARK AVE,,40.03232,-82.978123,,,,,,0
11TGRAW,1829,E 11TH AVE & N GRANT AVE,,39.994316,-82.995521,,,,,,0
CLELEHS,1835,CLEVELAND AVE & LEHNER RD,,40.052277,-82.953707,,,,,,0
BRELEON,1842,BRENTNELL AVE & LEONARD AVE,,39.988367,-82.950123,,,,,,0
BREWOON,1843,BRENTNELL AVE & WOODWARD AVE,,39.99193,-82.94982,,,,,,0
BRE1257N,1844,1257 BRENTNELL AVE,,39.994111,-82.949668,,,,,,0
BRELISN,1845,BRENTNELL AVE & LISA DR,,39.996475,-82.949452,,,,,,0
BREHOLN,1847,BRENTNELL AVE & HOLT AVE,,39.999959,-82.949169,,,,,,0
BREARGN,1849,BRENTNELL AVE & ARGYLE DR,,40.004015,-82.948677,,,,,,0
BREMIDN,1850,BRENTNELL AVE & MIDDLEHURST DR,,40.006181,-82.948201,,,,,,0
CAS10TS,1853,N CASSADY AVE & E 10TH AVE,,39.989618,-82.930658,,,,,,0
BREDAWN,1859,BRENTNELL AVE & DAWNLIGHT AVE,,40.01213,-82.94767,,,,,,0
BREMARN,1860,BRENTNELL AVE & MARCIA DR,,40.01467,-82.947921,,,,,,0
MYRBREW,1861,MYRTLE AVE & BRENTNELL AVE,,40.016392,-82.948212,,,,,,0
HUDDELW,1869,E HUDSON ST & DELBERT RD,,40.013367,-82.959119,,,,,,0
MAIBRIW,1875,E MAIN ST & BRIARCLIFF RD,,39.955183,-82.810937,,,,,,0
LIVQUAW,1879,E LIVINGSTON AVE & QUARRY RIDGE DR,,39.943073,-82.840707,,,,,,0
BREMYRS,1883,BRENTNELL AVE & MYRTLE AVE,,40.016019,-82.947889,,,,,,0
BREMARS,1884,BRENTNELL AVE & MARCIA DR,,40.014151,-82.948253,,,,,,0
BREMOCS,1885,BRENTNELL AVE & MOCK RD,0 BRENTNELL BLVD & S SOUDER AVE,40.011902,-82.94782,,,,,,0
BREDELS,1892,BRENTNELL AVE & DELAVAN DR,,40.009822,-82.948056,,,,,,0
BREMIDS,1893,BRENTNELL AVE & MIDDLEHURST DR,,40.006526,-82.948313,,,,,,0
BREARGS,1894,BRENTNELL AVE & ARGYLE DR,,40.003994,-82.94886,,,,,,0
BREHOLS,1896,BRENTNELL AVE & HOLT AVE,,40.000232,-82.94933,,,,,,0
BREORIS,1897,BRENTNELL AVE & ORIOLE PL,,39.997652,-82.949484,,,,,,0
BRE125S,1899,1257 BRENTNELL AVE,,39.994008,-82.949808,,,,,,0
BREWOOS,1900,BRENTNELL AVE & WOODWARD AVE,,39.992028,-82.949944,,,,,,0
BRELEOS,1901,BRENTNELL AVE & LEONARD AVE,,39.987986,-82.950267,,,,,,0
LIV4THE,1910,E LIVINGSTON AVE & MACON ALY,,39.952569,-82.992956,,,,,,0
LIVGRANE,1912,E LIVINGSTON AVE & S GRANT AVE,,39.952372,-82.988659,,,,,,0
LIVKELW,1913,E LIVINGSTON AVE & KELTON AVE,,39.949249,-82.959769,,,,,,0
LIVPARE,1914,E LIVINGSTON AVE & PARSONS AVE,,39.952108,-82.982688,,,,,,0
LIVANNE,1915,E LIVINGSTON AVE & ANN ST,,39.951525,-82.980461,,,,,,0
LIV18TE,1916,E LIVINGSTON AVE & S 18TH ST,,39.950844,-82.978123,,,,,,0
LIVCARE,1917,E LIVINGSTON AVE & CARPENTER ST,,39.950001,-82.975829,,,,,,0
LIV22NE,1918,E LIVINGSTON AVE & S 22ND ST,,39.949728,-82.972419,,,,,,0
LIVCHAE,1920,E LIVINGSTON AVE & S CHAMPION AVE,,39.949629,-82.970372,,,,,,0
LIVWILE,1921,E LIVINGSTON AVE & WILSON AVE,,39.949488,-82.967463,,,,,,0
LIVSTUE,1922,E LIVINGSTON AVE & STUDER AVE,,39.949323,-82.964026,,,,,,0
LIVKELE,1925,E LIVINGSTON AVE & KELTON AVE,,39.949071,-82.958973,,,,,,0
CLEMAINN,1926,CLEVELAND AVE & W MAIN ST,0 S CLEVELAND AVE & N CLEVELAND AVE,40.124349,-82.948058,,,,,,0
LIVBULE,1928,E LIVINGSTON AVE & BULEN AVE,,39.948709,-82.951589,,,,,,0
LIVRHOE,1929,E LIVINGSTON AVE & RHOADS AVE,,39.948609,-82.949543,,,,,,0
LIVMEME,1930,E LIVINGSTON AVE & MEMORY LN N,,39.948461,-82.94679,,,,,,0
LIVCOLE,1933,E LIVINGSTON AVE & COLLEGE AVE,,39.947918,-82.936415,,,,,,0
LIVCASE,1935,E LIVINGSTON AVE & S CASSINGHAM RD,,39.947752,-82.932876,,,,,,0
LIVROOE,1937,E LIVINGSTON AVE & S ROOSEVELT AVE,,39.947463,-82.927781,,,,,,0
LIVWELE,1941,E LIVINGSTON AVE & WELLESLEY RD,,39.947045,-82.919709,,,,,,0
LIVJAME,1943,E LIVINGSTON AVE & S JAMES RD,,39.946728,-82.914753,,,,,,0
LIVZETE,1945,E LIVINGSTON AVE & ZETTLER RD,,39.946509,-82.91014,,,,,,0
LIVBARE,1946,E LIVINGSTON AVE & BARNETT RD,,39.946304,-82.906055,,,,,,0
LIVCUNE,1947,E LIVINGSTON AVE & CUNARD RD,,39.946052,-82.90189,,,,,,0
LIVCOUE,1948,E LIVINGSTON AVE & COURTRIGHT RD,,39.945763,-82.896414,,,,,,0
LIVBEEE,1949,E LIVINGSTON AVE & BEECHWOOD RD,,39.945634,-82.894107,,,,,,0
LIVVILE,1950,E LIVINGSTON AVE & VILARDO LN,,39.945495,-82.891678,,,,,,0
LIVYEAE,1951,E LIVINGSTON AVE & S YEARLING RD,,39.945282,-82.887858,,,,,,0
LIVBURE,1952,E LIVINGSTON AVE & BURLINGTON AVE,,39.94503,-82.883376,,,,,,0
LIVGRAE,1953,E LIVINGSTON AVE & GRATTAN RD,,39.944825,-82.879707,,,,,,0
LIVHAME,1954,E LIVINGSTON AVE & S HAMILTON RD,,39.944646,-82.876777,,,,,,0
LIVSHAE,1956,E LIVINGSTON AVE & SHADY LANE RD,,39.944356,-82.87165,,,,,,0
MAISHAE,1962,E MAIN ST & SHADY LANE RD,,39.95521,-82.870849,,,,,,0
MAICOUE,1963,E MAIN ST & COUNTRY CLUB RD,,39.955113,-82.867497,,,,,,0
LIVCOUNW,1970,E LIVINGSTON AVE & COUNTRY CLUB RD,,39.944349,-82.868669,,,,,,0
LIVSHAW,1971,E LIVINGSTON AVE & SHADY LANE RD,,39.944466,-82.871037,,,,,,0
LIVHAMW,1973,E LIVINGSTON AVE & S HAMILTON RD,0 E LIVINGSTON AVE & WESTPHAL AVE,39.945035,-82.88004,,,,,,0
LIVWESW,1975,E LIVINGSTON AVE & WESTPHAL AVE,,39.945173,-82.883448,,,,,,0
LIVYEAW,1976,E LIVINGSTON AVE & S YEARLING RD,,39.945422,-82.887128,,,,,,0
LIVELDW,1977,E LIVINGSTON AVE & ELDERWOOD AVE,,39.945642,-82.891509,,,,,,0
LIVBEEW,1978,E LIVINGSTON AVE & BEECHWOOD RD,,39.945849,-82.89492,,,,,,0
LIVCOURW,1979,E LIVINGSTON AVE & COURTRIGHT RD,,39.946004,-82.897727,,,,,,0
LIVRANW,1980,E LIVINGSTON AVE & RAND AVE,,39.946227,-82.901949,,,,,,0
LIVBARW,1983,E LIVINGSTON AVE & BARNETT RD,,39.946462,-82.90604,,,,,,0
LIVHAMW1,1984,E LIVINGSTON AVE & S HAMPTON RD,,39.946765,-82.911877,,,,,,0
LIVJAMW,1985,E LIVINGSTON AVE & S JAMES RD,,39.946905,-82.914521,,,,,,0
FIS1247W,1992,1247 FISHINGER RD,,40.023669,-83.045968,,,,,,0
LIVCOLW,1994,E LIVINGSTON AVE & COLLEGE AVE,,39.9481,-82.936905,,,,,,0
KIMBURE,1995,KIMBERLY PKWY N & BURGANDY LN,,39.922967,-82.893292,,,,,,0
LIVMAYW,1996,E LIVINGSTON AVE & MAYFIELD PL,,39.948299,-82.941022,,,,,,0
LIVRHOW,1998,E LIVINGSTON AVE & RHOADS AVE,,39.948683,-82.948914,,,,,,0
LIVFAIW,1999,E LIVINGSTON AVE & FAIRWOOD AVE,,39.948932,-82.953402,,,,,,0
LIVLILW,2002,E LIVINGSTON AVE & LILLEY AVE,,39.949152,-82.957479,,,,,,0
LIVLOCW,2005,E LIVINGSTON AVE & LOCKBOURNE RD,E LIVINGSTON AVE & LOCKBOURNE ALY,39.949384,-82.962842,,,,,,0
LIVWILW,2006,E LIVINGSTON AVE & WILSON AVE,,39.949636,-82.967829,,,,,,0
LIVCHAW,2008,E LIVINGSTON AVE & S CHAMPION AVE,,39.949772,-82.970382,,,,,,0
LIVOHIW,2009,E LIVINGSTON AVE & S OHIO AVE,,39.949836,-82.971849,,,,,,0
LIVANNW,2012,E LIVINGSTON AVE & ANN ST,,39.951762,-82.980551,,,,,,0
LIVPARW,2013,E LIVINGSTON AVE & PARSONS AVE,,39.952318,-82.983242,,,,,,0
LIVGRANW,2015,E LIVINGSTON AVE & S GRANT AVE,,39.952577,-82.989591,,,,,,0
LIVMOHW,2016,E LIVINGSTON AVE & MOHAWK ST,,39.952701,-82.993116,,,,,,0
BRYRHOW,2036,BRYDEN RD & RHOADS AVE,,39.96014,-82.949885,,,,,,0
BRYFAIW,2041,BRYDEN RD & FAIRWOOD AVE,,39.960194,-82.952472,,,,,,0
TOWWASW,2055,E TOWN ST & S WASHINGTON AVE,,39.960392,-82.986752,,,,,,0
TOWGRAE,2065,E TOWN ST & S GRANT AVE,,39.959891,-82.989874,,,,,,0
TOWWASE,2066,E TOWN ST & S WASHINGTON AVE,,39.960278,-82.986553,,,,,,0
TOWLESE,2067,E TOWN ST & LESTER DR,,39.960602,-82.9836,,,,,,0
BRYPARE,2068,BRYDEN RD & PARSONS AVE,,39.960613,-82.981411,,,,,,0
BRYMONE,2069,BRYDEN RD & S MONROE AVE,,39.960565,-82.978675,,,,,,0
BRY18TE,2070,BRYDEN RD & S 18TH ST,,39.960505,-82.975622,,,,,,0
BRYCHAE,2073,BRYDEN RD & S CHAMPION AVE,,39.960381,-82.968978,,,,,,0
BRYWILE,2074,BRYDEN RD & WILSON AVE,,39.960339,-82.966614,,,,,,0
BRYOPPE,2075,BRYDEN RD & KENDALL PL,,39.960279,-82.962921,,,,,,0
BRYMILE,2076,BRYDEN RD & MILLER AVE,,39.960234,-82.960225,,,,,,0
BRYKELE,2077,BRYDEN RD & KELTON AVE,,39.960203,-82.95779,,,,,,0
BRYMORE,2078,BRYDEN RD & MORRISON AVE,,39.960134,-82.955144,,,,,,0
BRYFAIE,2079,BRYDEN RD & FAIRWOOD AVE,,39.960076,-82.952864,,,,,,0
BRYMORW,2082,BRYDEN RD & MORRISON AVE,,39.960251,-82.95473,,,,,,0
BRYKELW,2083,BRYDEN RD & KELTON AVE,,39.960332,-82.958355,,,,,,0
BRYMILW,2084,BRYDEN RD & MILLER AVE,,39.960358,-82.960262,,,,,,0
BRYALTW,2085,BRYDEN RD & LOEFFLER AVE,,39.960415,-82.963257,,,,,,0
BRYWILW,2086,BRYDEN RD & WILSON AVE,,39.960462,-82.966215,,,,,,0
BRYCHAW,2087,BRYDEN RD & S CHAMPION AVE,,39.960508,-82.96904,,,,,,0
BRYOHIW,2088,BRYDEN RD & S OHIO AVE,,39.960546,-82.971012,,,,,,0
BRYMONW,2091,BRYDEN RD & S MONROE AVE,,39.960689,-82.978806,,,,,,0
BRYPARW,2092,BRYDEN RD & PARSONS AVE,,39.960743,-82.981643,,,,,,0
TOWLESW,2093,E TOWN ST & LESTER DR,,39.960755,-82.98345,,,,,,0
FREANNE,2110,FREBIS AVE & ANN ST,,39.935329,-82.98133,,,,,,0
FRE18TE,2111,FREBIS AVE & S 18TH ST,,39.935198,-82.978531,,,,,,0
FRESTUE,2116,FREBIS AVE & STUDER AVE,,39.934564,-82.965227,,,,,,0
LOCSHES,2117,LOCKBOURNE RD & SHELDON AVE,,39.933091,-82.964576,,,,,,0
LOCMARS,2118,LOCKBOURNE RD & E MARKISON AVE,,39.930737,-82.964815,,,,,,0
LOCSMIS,2119,LOCKBOURNE RD & SMITH RD,,39.927319,-82.965088,,,,,,0
LOCREES,2120,LOCKBOURNE RD & REEB AVE,,39.924346,-82.96535,,,,,,0
LOC234S,2123,2341 LOCKBOURNE RD,,39.916738,-82.965945,,,,,,0
KOEACRE,2124,1130 KOEBEL RD,1130 KOEBEL RD & LOCKBOURNE RD,39.912566,-82.965339,,,,,,0
KOEEDSLE,2126,KOEBEL & EDSEL AVE,KOEBEL RD & EDSEL AVE,39.912305,-82.960477,,,,,,0
KOEFAIE,2127,KOEBEL RD & FAIRWOOD AVE,,39.912137,-82.957113,,,,,,0
FAIFABS,2128,FAIRWOOD AVE & FABER AVE,,39.908916,-82.957151,,,,,,0
FAIWATS,2130,FAIRWOOD AVE & WATKINS RD,,39.905003,-82.957457,,,,,,0
CAM132N,2136,1320 CAMBRIDGE BLVD,,39.98363,-83.057995,,,,,,0
NAG6THE,2137,E NAGHTEN ST & N 6TH ST,289 E NAGHTEN ST & N 6TH ST,39.96864,-82.99363,,,,,,0
FAIWATN,2139,FAIRWOOD AVE & WATKINS RD,,39.904641,-82.957343,,,,,,0
FAIFABN,2140,FAIRWOOD AVE & FABER AVE,,39.90858,-82.957056,,,,,,0
KOEFAIW,2141,KOEBEL RD & FAIRWOOD AVE,,39.912248,-82.957167,,,,,,0
SAICLEN,2143,ST ANNS W SVC RD & ST ANNS #1 ENT,,40.113502,-82.947477,,,,,,0
LOCMARN,2145,LOCKBOURNE RD & MARION RD,,39.923078,-82.965236,,,,,,0
LOCINNN,2146,LOCKBOURNE RD & E INNIS AVE,,39.925145,-82.96512,,,,,,0
LOCSMIN,2147,LOCKBOURNE RD & SMITH RD,,39.927353,-82.964946,,,,,,0
LOCMOLN,2149,LOCKBOURNE RD & MOLER RD,,39.932519,-82.964517,,,,,,0
FRESTUW,2150,FREBIS AVE & STUDER AVE,,39.934713,-82.965872,,,,,,0
FREOAKW,2152,FREBIS AVE & OAKWOOD AVE,,39.934896,-82.969779,,,,,,0
FREOHIW,2153,FREBIS AVE & S OHIO AVE,,39.935026,-82.972771,,,,,,0
FREGILW,2154,FREBIS AVE & GILBERT ST,,39.935144,-82.975267,,,,,,0
FRE18TW,2155,FREBIS AVE & S 18TH ST,,39.935298,-82.978517,,,,,,0
FREANNW,2156,FREBIS AVE & ANN ST,,39.935435,-82.981369,,,,,,0
FREPARW,2157,FREBIS AVE & PARSONS AVE,,39.935528,-82.983378,,,,,,0
KIMCOUE,2167,KIMBERLY PKWY N & COURTRIGHT RD,,39.921473,-82.896356,,,,,,0
LONTALE,2171,E LONG ST & TALMADGE AVE,E LONG ST & N MONROE AVE,39.967421,-82.978705,,,,,,0
LON17TE,2172,E LONG ST & N 17TH ST,,39.967667,-82.976788,,,,,,0
LON20TE,2173,E LONG ST & N 20TH ST,,39.968017,-82.973786,,,,,,0
LONOHIE,2175,E LONG ST & N OHIO AVE,,39.968422,-82.970108,,,,,,0
LONCHAE,2176,E LONG ST & GOVERNOR PL,,39.968593,-82.968587,,,,,,0
LONWINE,2177,E LONG ST & WINNER AVE,,39.968872,-82.966171,,,,,,0
GRESHEW,2184,GREENWAY AVE S & SHERBOURNE DR,,39.971621,-82.950056,,,,,,0
GREGREW,2185,GREENWAY AVE & GREENWAY AVE S,,39.973621,-82.952462,,,,,,0
LONWINW,2192,E LONG ST & WINNER AVE,,39.968985,-82.966304,,,,,,0
LONOHIW,2194,E LONG ST & N OHIO AVE,,39.968634,-82.969626,,,,,,0
LON20TW,2195,E LONG ST & N 20TH ST,,39.96819,-82.97334,,,,,,0
LON18TW,2196,E LONG ST & N 18TH ST,,39.96792,-82.975715,,,,,,0
LONMONW,2197,E LONG ST & N MONROE AVE,,39.967599,-82.978761,,,,,,0
MAISTAE,2198,W MAIN ST & N STATE ST,0 W MAIN ST & E MAIN ST,40.126581,-82.932978,,,,,,0
HIGBLENS,2201,S HIGH ST & W BLENKNER ST,,39.951768,-82.998729,,,,,,0
HIGSYCS,2202,S HIGH ST & W SYCAMORE ST,,39.948745,-82.998144,,,,,,0
HIGFRANS,2203,S HIGH ST & W FRANKFORT ST,,39.947233,-82.997854,,,,,,0
HIGWHIS,2205,S HIGH ST & W WHITTIER ST,,39.944226,-82.997269,,,,,,0
HIGSTES,2206,S HIGH ST & STEWART AVE,,39.94207,-82.996853,,,,,,0
HIGGRES,2207,S HIGH ST & GREENLAWN AVE,,39.939231,-82.996301,,,,,,0
4THJENS,2212,S 4TH ST & E JENKINS AVE,,39.933162,-82.992812,,,,,,0
4THMARS,2213,S 4TH ST & E MARKISON AVE,,39.931141,-82.992962,,,,,,0
4THWOOS,2214,S 4TH ST & E WOODROW AVE,,39.927719,-82.993236,,,,,,0
4THREES,2215,S 4TH ST & REEB AVE,,39.924946,-82.993453,,,,,,0
HIG210S,2218,2101 S HIGH ST,,39.919427,-82.995504,,,,,,0
HIGDERS,2221,S HIGH ST & DERING AVE,0 S HIGH ST & DERING AVE,39.912616,-82.995498,,,,,,0
HIGCASS,2223,S HIGH ST & W CASTLE RD,,39.907421,-82.995475,,,,,,0
HIGALCS,2224,S HIGH ST & W ALCOTT RD,,39.905676,-82.995507,,,,,,0
HIGRUMS,2227,S HIGH ST & RUMSEY RD,,39.894285,-82.995656,,,,,,0
HIGWILS,2228,S HIGH ST & WILLIAMS RD,,39.892077,-82.99661,,,,,,0
HIG365N,2234,3650 S HIGH ST,,39.887012,-82.998583,,,,,,0
HIGWILN1,2235,S HIGH ST & WILLIAMS RD,,39.892198,-82.996262,,,,,,0
HIGRUMN,2236,S HIGH ST & RUMSEY RD,,39.894559,-82.995306,,,,,,0
HIGSOUGN,2237,S HIGH ST & SOUTHGATE DR,,39.901552,-82.995196,,,,,,0
HIGSCHVN,2239,S HIGH ST & SCHRYVER RD,,39.903927,-82.995221,,,,,,0
HIGALCN,2240,S HIGH ST & E ALCOTT RD,S HIGH ST & W ALCOTT RD,39.905897,-82.995219,,,,,,0
HIGCASN,2241,S HIGH ST & E CASTLE RD,,39.907457,-82.99523,,,,,,0
HIGDELN,2243,S HIGH ST & DELRAY RD,,39.910818,-82.995241,,,,,,0
HIG205N,2245,2050 S HIGH ST,2050 Unit KINGSTON,39.919656,-82.995293,,,,,,0
HOSHIGE,2246,HOSACK ST & S HIGH ST,,39.922746,-82.994783,,,,,,0
4THINNN,2248,S 4TH ST & E INNIS AVE,,39.926062,-82.993229,,,,,,0
4THWELN,2249,S 4TH ST & E WELCH AVE,,39.930253,-82.992908,,,,,,0
4THSOUN,2250,S 4TH ST & SOUTHWOOD AVE,,39.932182,-82.992758,,,,,,0
HIGMITN,2254,S HIGH ST & E MITHOFF ST,,39.938511,-82.996027,,,,,,0
HIGWHIN,2257,S HIGH ST & E WHITTIER ST,,39.944265,-82.997041,,,,,,0
HIGCOLN,2258,S HIGH ST & E COLUMBUS ST,0 S HIGH ST & E KOSSUTH ST,39.946063,-82.99739,,,,,,0
HIGSYCN,2259,S HIGH ST & E SYCAMORE ST,,39.948804,-82.997938,,,,,,0
MAIGRANE,2266,E MAIN ST & S GRANT AVE,,39.957237,-82.989168,,,,,,0
MAIWASE,2267,E MAIN ST & S WASHINGTON AVE,,39.95758,-82.986152,,,,,,0
MAIALLE,2268,E MAIN ST & ALLEN AVE,,39.957972,-82.979629,,,,,,0
MAIGILE,2270,E MAIN ST & GILBERT ST,,39.957837,-82.973667,,,,,,0
MAIOHIE,2271,E MAIN ST & S OHIO AVE,,39.957787,-82.971074,,,,,,0
MAICHAE,2272,E MAIN ST & S CHAMPION AVE,,39.957745,-82.969029,,,,,,0
MAIKIME,2275,E MAIN ST & KIMBALL PL,,39.957649,-82.963786,,,,,,0
MAIMILLE,2276,E MAIN ST & MILLER AVE,,39.957594,-82.960908,,,,,,0
MAIKELTE,2277,E MAIN ST & KELTON AVE,,39.957582,-82.958924,,,,,,0
MAISEYE,2279,E MAIN ST & SEYMOUR AVE,,39.95746,-82.954627,,,,,,0
MAIBULE,2280,E MAIN ST & BULEN AVE,,39.957405,-82.95133,,,,,,0
MAIRHOE,2281,E MAIN ST & RHOADS AVE,,39.957352,-82.948965,,,,,,0
MAIPARE,2283,E MAIN ST & S PARKVIEW AVE,,39.957199,-82.941981,,,,,,0
MAIDREE,2285,E MAIN ST & S DREXEL AVE,,39.957095,-82.937831,,,,,,0
MAIEUCE,2287,E MAIN ST & EUCLAIRE AVE,,39.956999,-82.933552,,,,,,0
MAIMONE,2288,E MAIN ST & MONTROSE AVE,,39.956928,-82.9307,,,,,,0
MAIROOE,2289,E MAIN ST & S ROOSEVELT AVE,,39.956846,-82.92754,,,,,,0
MAIBROE,2291,E MAIN ST & S BROADLEIGH RD,,39.956718,-82.92288,,,,,,0
EASOFFE,2292,EASTGREEN BLVD & OFFICEVIEW PL,,39.93829,-82.829364,,,,,,0
MAIBROE1,2293,E MAIN ST & BROOKSIDE DR,,39.956582,-82.917533,,,,,,0
MAIJAME,2294,E MAIN ST & S JAMES RD,,39.956514,-82.915205,,,,,,0
MAIWEYE,2296,E MAIN ST & S WEYANT AVE,,39.956319,-82.90865,,,,,,0
MAIBARE,2297,E MAIN ST & BARNETT RD,,39.956219,-82.905568,,,,,,0
MAIMAPE,2298,E MAIN ST & MAPLEWOOD AVE,,39.956164,-82.903228,,,,,,0
MAICOLWE,2299,E MAIN ST & COLLINGWOOD AVE,,39.95607,-82.90095,,,,,,0
MAIKARE,2302,E MAIN ST & KARL ST,,39.955754,-82.889029,,,,,,0
MAIYEAE,2303,E MAIN ST & S YEARLING RD,,39.955685,-82.886675,,,,,,0
MAIWESE1,2305,E MAIN ST & WESTPHAL AVE,,39.955554,-82.88252,,,,,,0
MAIBERE,2306,E MAIN ST & BERNHARD RD,,39.955488,-82.880052,,,,,,0
MAIHAME,2307,E MAIN ST & S HAMILTON RD,,39.955406,-82.877168,,,,,,0
MAIMANE,2309,E MAIN ST & MANFELD DR,,39.954934,-82.861667,,,,,,0
MAIMANW,2313,E MAIN ST & MANFELD DR,,39.955108,-82.861943,,,,,,0
MAIHAMW,2315,E MAIN ST & S HAMILTON RD,,39.955576,-82.87647,,,,,,0
MAIBERW,2316,E MAIN ST & BERNHARD RD,,39.955649,-82.879887,,,,,,0
MAIWESW,2317,E MAIN ST & WESTPHAL AVE,,39.955698,-82.882077,,,,,,0
MAIYEAW,2319,E MAIN ST & S YEARLING RD,,39.955855,-82.886087,,,,,,0
MAIKARW,2320,E MAIN ST & KARL ST,,39.955901,-82.889024,,,,,,0
MAIROBW,2322,E MAIN ST & ROBINWOOD AVE,,39.956127,-82.896346,,,,,,0
MAICOLWW,2323,E MAIN ST & COLLINGWOOD AVE,,39.956271,-82.901064,,,,,,0
MAIMAPW,2324,E MAIN ST & MAPLEWOOD AVE,,39.956316,-82.903466,,,,,,0
MAIRUBW,2325,E MAIN ST & RUBY AVE,,39.956392,-82.906068,,,,,,0
MAIWEYW,2326,E MAIN ST & S WEYANT AVE,WEYANT LOOP SVC & E MAIN ST,39.956483,-82.908647,,,,,,0
MAIJAMW,2329,E MAIN ST & S JAMES RD,,39.956636,-82.914425,,,,,,0
MAIEASW,2331,E MAIN ST & EASTMOOR BLVD,,39.956761,-82.918519,,,,,,0
MAICHEW,2332,E MAIN ST & S CHESTERFIELD RD,,39.956833,-82.92096,,,,,,0
MAIKENW,2333,E MAIN ST & KENWICK RD,,39.956899,-82.92372,,,,,,0
MAIROOW,2334,E MAIN ST & S ROOSEVELT AVE,,39.956992,-82.927256,,,,,,0
MAIREMW,2335,E MAIN ST & S REMINGTON RD,,39.957072,-82.930136,,,,,,0
MAICASW1,2337,E MAIN ST & S CASSADY AVE,,39.95716,-82.933802,,,,,,0
MAIDREW,2338,E MAIN ST & S DREXEL AVE,,39.957238,-82.937905,,,,,,0
MAIPARKW,2340,E MAIN ST & S PARKVIEW AVE,,39.957373,-82.942062,,,,,,0
MAIRHOW,2343,E MAIN ST & RHOADS AVE,,39.957513,-82.949091,,,,,,0
MAIFAIW,2344,E MAIN ST & FAIRWOOD AVE,,39.957587,-82.952709,,,,,,0
MAIKELTW,2346,E MAIN ST & KELTON AVE,0 E MAIN ST & KELTON AVE,39.957701,-82.958203,,,,,,0
MAIMILLW,2347,E MAIN ST & MILLER AVE,,39.957736,-82.960545,,,,,,0
MAIKENW1,2348,E MAIN ST & KENDALL PL,,39.957811,-82.964225,,,,,,0
MAIWILW,2349,E MAIN ST & WILSON AVE,,39.957862,-82.966495,,,,,,0
MAICHAW,2350,E MAIN ST & S CHAMPION AVE,,39.957907,-82.969235,,,,,,0
MAIOHIW,2351,E MAIN ST & S OHIO AVE,,39.957941,-82.97059,,,,,,0
MAICARW,2353,E MAIN ST & CARPENTER ST,,39.958022,-82.974446,,,,,,0
MAIMONW,2355,E MAIN ST & S MONROE AVE,,39.958114,-82.979157,,,,,,0
MAIPARSW,2356,E MAIN ST & PARSONS AVE,,39.958166,-82.981527,,,,,,0
MAIWASW,2357,E MAIN ST & S WASHINGTON AVE,,39.957806,-82.985663,,,,,,0
RICGRAW,2359,E RICH ST & S GRANT AVE,,39.958533,-82.991263,,,,,,0
LINLINN,2363,LINWORTH RD & STATE ROUTE 161,,40.0914,-83.049666,,,,,,0
LINLOCN,2365,LINWORTH RD & LOCH NESS AVE,,40.099462,-83.047468,,,,,,0
TOWDAVW,2369,W TOWN ST & S DAVIS AVE,,39.956209,-83.021405,,,,,,0
SOUSULS,2371,S SOUDER AVE & SULLIVANT AVE,,39.952862,-83.021667,,,,,,0
SOUMOUS,2373,S SOUDER AVE & THOMAS AVE,,39.950833,-83.02125,,,,,,0
MOUPRIW,2376,W MOUND ST & S PRINCETON AVE,,39.94665,-83.032797,,,,,,0
MOUCENWF,2377,W MOUND ST & CENTRAL POINT,,39.945335,-83.037631,,,,,,0
MOURYAW,2379,W MOUND ST & RYAN AVE,,39.944578,-83.040376,,,,,,0
MOUTOWW,2380,W MOUND ST & TOWNSEND AVE,,39.943582,-83.04404,,,,,,0
MOUWOOW,2381,W MOUND ST & WOODBURY AVE,,39.942962,-83.046368,,,,,,0
MOUHILW,2383,W MOUND ST & HILLTONIA AVE,,39.94194,-83.050241,,,,,,0
MOUBELW,2384,W MOUND ST & BELVIDERE AVE,,39.941353,-83.052404,,,,,,0
MOUHIGW2,2386,W MOUND ST & S HIGHLAND AVE,,39.939658,-83.058678,,,,,,0
MOUWARW,2391,W MOUND ST & S WARREN AVE,,39.939803,-83.070889,,,,,,0
MOURACE,2433,W MOUND ST & RACINE AVE,,39.939727,-83.071178,,,,,,0
MOURICE,2435,W MOUND ST & S RICHARDSON AVE,,39.939086,-83.066815,,,,,,0
MOUWAYE,2437,W MOUND ST & S WAYNE AVE,,39.938399,-83.062885,,,,,,0
MOUHIGE,2439,W MOUND ST & S HIGHLAND AVE,,39.93959,-83.058523,,,,,,0
MOUCLAE,2440,W MOUND ST & CLARENDON AVE,,39.940214,-83.056173,,,,,,0
MOUBUTE,2441,W MOUND ST & BUTLER AVE,,39.940849,-83.053783,,,,,,0
MOUWREE,2442,W MOUND ST & WREXHAM AVE,,39.941521,-83.051291,,,,,,0
MOUCLAE1,2444,W MOUND ST & CLARK AVE,,39.942546,-83.047534,,,,,,0
MOULARE,2445,W MOUND ST & LARCOMB AVE,,39.943068,-83.045507,,,,,,0
MOUEDWE,2446,W MOUND ST & EDWIN ST,,39.943718,-83.043037,,,,,,0
MOURYAE,2447,W MOUND ST & RYAN AVE,,39.944346,-83.040738,,,,,,0
MOUCENE,2448,W MOUND ST & CENTRAL POINT,,39.945186,-83.0375,,,,,,0
MOUGLENE,2451,W MOUND ST & GLENWOOD AVE,,39.947641,-83.028537,,,,,,0
MOUMOUE,2454,W MOUND ST & MOUNT CALVARY AVE,MOUND ST & MT CALVARY AVE,39.949358,-83.022205,,,,,,0
SOUMOUN,2455,S SOUDER AVE & W MOUND ST,,39.950083,-83.020951,,,,,,0
DAVCAMN,2456,S DAVIS AVE & CAMPBELL AVE,,39.951662,-83.019977,,,,,,0
DAVSULN,2457,S DAVIS AVE & SULLIVANT AVE,,39.953732,-83.020406,,,,,,0
RICGREE,2459,W RICH ST & S GREEN ST,,39.955112,-83.019747,,,,,,0
RICGRUE,2460,W RICH ST & S SKIDMORE ST,,39.955547,-83.015862,,,,,,0
RICMCDE,2462,W RICH ST & MCDOWELL ST,,39.955908,-83.012859,,,,,,0
RICSTAE,2464,W RICH ST & STARLING ST,,39.956367,-83.008915,,,,,,0
BROHOFE,2476,E BROAD ST & HOFFMAN AVE,,39.965196,-82.973968,,,,,,0
BROOHIE,2477,E BROAD ST & S OHIO AVE,,39.965612,-82.970428,,,,,,0
BROCHAE,2478,E BROAD ST & S CHAMPION AVE,0 E BROAD ST & S OHIO AVE,39.96578,-82.969062,,,,,,0
BROWILAE,2479,E BROAD ST & WILSON AVE,,39.966161,-82.96571,,,,,,0
BROLATE,2480,E BROAD ST & LATTA AVE,,39.966465,-82.962882,,,,,,0
BROFRA1E,2481,E BROAD ST & FRANKLIN PK W,,39.966774,-82.960153,,,,,,0
BROWOOE,2482,E BROAD ST & WOODLAND AVE,,39.967024,-82.957871,,,,,,0
BRONELE,2483,E BROAD ST & S NELSON RD,,39.967979,-82.949094,,,,,,0
BROPARE,2484,E BROAD ST & PARK DR,,39.968467,-82.945109,,,,,,0
BROPARKE,2485,E BROAD ST & S PARKVIEW AVE,,39.968922,-82.940999,,,,,,0
BRODREE,2486,E BROAD ST & S DREXEL AVE,,39.969462,-82.936194,,,,,,0
BROCASAE,2487,E BROAD ST & S CASSADY AVE,,39.969893,-82.932362,,,,,,0
BROCASIE,2488,E BROAD ST & S CASSINGHAM RD,0 E BROAD ST & S CASSINGHAM RD,39.970141,-82.929931,,,,,,0
BROSTANE,2489,E BROAD ST & S STANWOOD RD,,39.970426,-82.927304,,,,,,0
BROMERE,2490,E BROAD ST & S MERKLE RD,,39.970745,-82.924191,,,,,,0
BROBRODE,2491,E BROAD ST & S BROADLEIGH RD,,39.970969,-82.922222,,,,,,0
BROHARDE,2492,E BROAD ST & S HARDING RD,,39.971311,-82.918997,,,,,,0
BROJAME,2494,E BROAD ST & S JAMES RD,,39.972043,-82.91233,,,,,,0
BRONAPE,2496,E BROAD ST & S NAPOLEON AVE,,39.972731,-82.905969,,,,,,0
MAIFOUNE,2497,E MAIN ST & FOUNTAIN LN,,39.954875,-82.859757,,,,,,0
BRO367E,2498,3675 E BROAD ST,,39.972955,-82.903909,,,,,,0
STYAGLS,2500,N STYGLER RD & AGLER RD,,40.020256,-82.890583,,,,,,0
BROROBE,2501,E BROAD ST & ROBINWOOD AVE,,39.973751,-82.896156,,,,,,0
BROBEETE,2502,E BROAD ST & BEECHTREE RD,,39.973911,-82.894697,,,,,,0
BROBEEWE,2503,E BROAD ST & BEECHWOOD RD,0 E BROAD ST & BEECHWOOD RD,39.974217,-82.891701,,,,,,0
BRO4251E,2504,4251 E BROAD ST,,39.9746,-82.888009,,,,,,0
BROYEAE,2505,E BROAD ST & S YEARLING RD,,39.974907,-82.88498,,,,,,0
BROSANE,2507,E BROAD ST & SANTA MARIA LN,0 E BROAD ST & PARKLAWN BLVD,39.975172,-82.882381,,,,,,0
BROHAMIE,2509,E BROAD ST & S HAMILTON RD,0 E BROAD ST & HAMILTON RD,39.976017,-82.874391,,,,,,0
BROMTCS,2513,E BROAD ST & MT CARMEL EAST HOSPITAL,0 MT CARMEL SERVICE RD & MT CARMEL EAST PATH,39.978169,-82.845089,,,,,,0
BROMIDCW,2515,E BROAD ST & MIDCLIFF DR,,39.976355,-82.873068,,,,,,0
BROHAMW,2516,E BROAD ST & N HAMILTON RD,,39.976032,-82.876023,,,,,,0
BROFAIW,2517,E BROAD ST & FAIRWAY BLVD,,39.97584,-82.877766,,,,,,0
BROYEAW,2519,E BROAD ST & N YEARLING RD,,39.975013,-82.885694,,,,,,0
BROBEEWW,2521,E BROAD ST & BEECHWOOD RD,,39.97441,-82.891414,,,,,,0
BROBEETW,2522,E BROAD ST & BEECHTREE RD,,39.974162,-82.893899,,,,,,0
BROROBW,2523,E BROAD ST & ROBINWOOD AVE,,39.973865,-82.896757,,,,,,0
BROMAPW,2525,E BROAD ST & MAPLEWOOD AVE,,39.973244,-82.902753,,,,,,0
HAMTECN,2526,S HAMILTON RD & TECH CENTER DR,,39.998535,-82.868035,,,,,,0
BROWEYW,2527,E BROAD ST & N WEYANT AVE,,39.972825,-82.906608,,,,,,0
BROHAMPW,2528,E BROAD ST & N HAMPTON RD,,39.972516,-82.909396,,,,,,0
BROHARDW,2531,E BROAD ST & N HARDING RD,,39.971455,-82.919248,,,,,,0
BROBRODW,2532,E BROAD ST & N BROADLEIGH RD,,39.971196,-82.921739,,,,,,0
BROMERW,2533,E BROAD ST & N MERKLE RD,,39.970863,-82.924726,,,,,,0
BROSTANW,2534,E BROAD ST & N STANWOOD RD,,39.970502,-82.927924,,,,,,0
BROCASIW,2535,E BROAD ST & N CASSINGHAM RD,0 E BROAD ST & N CASSINGHAM RD,39.970235,-82.930541,,,,,,0
BROCASAW,2536,E BROAD ST & N CASSADY AVE,,39.969949,-82.933334,,,,,,0
BRODREW,2537,E BROAD ST & N DREXEL AVE,,39.969388,-82.938292,,,,,,0
BROPARVW,2538,E BROAD ST & N PARKVIEW AVE,,39.969013,-82.941675,,,,,,0
BROMEAW,2539,E BROAD ST & MEADOW PARK AVE,,39.968589,-82.945432,,,,,,0
BRONELFW,2540,E BROAD ST & N NELSON RD,,39.967955,-82.951293,,,,,,0
BROWOOW,2541,E BROAD ST & WOODLAND AVE,,39.967214,-82.957922,,,,,,0
BROPARWW,2542,E BROAD ST & PARKWOOD AVE,,39.966954,-82.960286,,,,,,0
BROWINW,2544,E BROAD ST & WINNER AVE,,39.966355,-82.965724,,,,,,0
BROGOVW,2545,E BROAD ST & GOVERNOR PL,,39.965971,-82.969101,,,,,,0
BROOHIW,2546,E BROAD ST & N OHIO AVE,,39.965785,-82.970754,,,,,,0
BRO20TW,2547,E BROAD ST & N 20TH ST,,39.965386,-82.974112,,,,,,0
BRO17TW,2548,E BROAD ST & N 17TH ST,,39.964964,-82.977646,,,,,,0
BROHAMIW,2549,E BROAD ST & HAMILTON PARK,,39.964554,-82.980921,,,,,,0
AGL540W,2552,540 AGLER RD,,40.01968,-82.896671,,,,,,0
HAMFAIS,2556,S HAMILTON RD & FAIRWAY BLVD,,39.973558,-82.874653,,,,,,0
HAMSANS,2557,S HAMILTON RD & SAN JOSE LN,,39.971081,-82.87553,,,,,,0
HAMSAIS,2558,S HAMILTON RD & SAINT ANN LN,,39.969554,-82.875659,,,,,,0
HAMETNS,2560,S HAMILTON RD & ETNA RD,,39.964839,-82.876109,,,,,,0
HAMRICS,2561,S HAMILTON RD & RICKENBACKER AVE,,39.962023,-82.876333,,,,,,0
HAMLANS,2562,S HAMILTON RD & LANGLEY AVE,,39.959843,-82.876536,,,,,,0
HAMWRIS,2563,S HAMILTON RD & WRIGHT AVE,,39.958235,-82.876675,,,,,,0
HAMMAIS,2564,S HAMILTON RD & E MAIN ST,,39.955782,-82.876919,,,,,,0
HAMKAEN,2569,S HAMILTON RD & KAE AVE,,39.962793,-82.876057,,,,,,0
HAMBROHN,2572,S HAMILTON RD & BROADHURST DR,,39.967708,-82.875631,,,,,,0
HAMSHAN,2573,S HAMILTON RD & SHAKER SQ,,39.969665,-82.875451,,,,,,0
HAMSANN,2574,S HAMILTON RD & SAN JOSE LN,,39.970545,-82.875356,,,,,,0
HAMFAIN,2575,S HAMILTON RD & FAIRWAY BLVD,,39.973724,-82.874318,,,,,,0
HAMSWAS,2619,N HAMILTON RD & SWANSON AVE,,39.998485,-82.868417,,,,,,0
CASCUMN,2621,CASSADY AVE & CUMBERLAND WOODS DR,,40.009748,-82.929369,,,,,,0
PARWHIN,2622,PARSONS AVE & E WHITTIER ST,0 PARSONS AVE & STANLEY AVE,39.944638,-82.982825,,,,,,0
BRODAVW,2624,W BROAD ST & N DAVIS AVE,,39.959753,-83.021508,,,,,,0
BRORODW,2626,W BROAD ST & RODGERS AVE,,39.95906,-83.027277,,,,,,0
BROYALW,2628,W BROAD ST & N YALE AVE,,39.958529,-83.031729,,,,,,0
BROCHIW,2629,W BROAD ST & CHICAGO AVE,,39.958266,-83.033947,,,,,,0
BROCENW,2631,W BROAD ST & N CENTRAL AVE,,39.957717,-83.038526,,,,,,0
BROSTEW,2632,W BROAD ST & STEVENS AVE,,39.957385,-83.041326,,,,,,0
STRHARW,2634,2096 STRINGTOWN RD,,39.878575,-83.057451,,,,,,0
BROLECW,2635,W BROAD ST & LECHNER AVE,,39.956034,-83.053531,,,,,,0
BROBELW,2636,W BROAD ST & BELLE ST,W BROAD ST & S BELLE ST,39.961245,-83.009506,,,,,,0
BROMIDLW,2637,W BROAD ST & MIDLAND AVE,,39.955795,-83.057779,,,,,,0
BROHIGW,2638,W BROAD ST & S HIGHLAND AVE,,39.955662,-83.060613,,,,,,0
BROOAKW,2639,W BROAD ST & N OAKLEY AVE,,39.955556,-83.062753,,,,,,0
BROEURW,2640,W BROAD ST & N EUREKA AVE,,39.955419,-83.065714,,,,,,0
BROOGDW,2642,W BROAD ST & N OGDEN AVE,,39.955174,-83.070962,,,,,,0
BROHAGW,2643,W BROAD ST & N HAGUE AVE,0 W BROAD ST & S HAGUE AVE,39.955025,-83.074295,,,,,,0
BROHALW,2645,W BROAD ST & HALDY AVE,,39.95477,-83.079212,,,,,,0
BROWESW,2646,W BROAD ST & N WESTMOOR AVE,,39.954668,-83.081721,,,,,,0
BROBRIW,2647,W BROAD ST & N BRINKER AVE,,39.954545,-83.084259,,,,,,0
CAS1884S,2648,1884 N CASSADY AVE,,40.010378,-82.929452,,,,,,0
BROALGE,2651,W BROAD ST & S ALGONQUIN AVE,,39.954313,-83.085328,,,,,,0
BROWESGE,2652,W BROAD ST & S WESTGATE AVE,,39.954444,-83.082525,,,,,,0
BROROYE,2654,W BROAD ST & S ROYS AVE,,39.95466,-83.077928,,,,,,0
BROHAGE,2656,W BROAD ST & S HAGUE AVE,,39.954847,-83.074267,,,,,,0
BROWARE,2657,W BROAD ST & S WARREN AVE,,39.954971,-83.071307,,,,,,0
BROBURE,2658,W BROAD ST & S BURGESS AVE,,39.955101,-83.068784,,,,,,0
BROWAYE,2660,W BROAD ST & S WAYNE AVE,0 W BROAD ST & S WAYNE AVE,39.955327,-83.064219,,,,,,0
BROHIGE,2662,W BROAD ST & S HIGHLAND AVE,,39.955488,-83.060654,,,,,,0
BROWHIE,2663,W BROAD ST & WHITETHORNE AVE,,39.95566,-83.056948,,,,,,0
BROLECE,2664,W BROAD ST & LECHNER AVE,,39.955856,-83.053091,,,,,,0
BROENTE,2666,W BROAD ST & GLENWOOD PARK,,39.95646,-83.047551,,,,,,0
BROSTEE,2667,W BROAD ST & STEVENS AVE,,39.957193,-83.04135,,,,,,0
BROCENE,2668,W BROAD ST & S CENTRAL AVE,,39.957636,-83.03774,,,,,,0
BROWESPE,2670,W BROAD ST & W PARK AVE,0 W BROAD ST & WISCONSIN AVE,39.958204,-83.032955,,,,,,0
BROGLEE,2671,W BROAD ST & S CYPRESS AVE,,39.9586,-83.029651,,,,,,0
BROHAWE,2673,W BROAD ST & HAWKES AVE,0 W BROAD ST & HAWKES AVE,39.959098,-83.025458,,,,,,0
BRODAVE,2675,W BROAD ST & S DAVIS AVE,,39.959646,-83.020843,,,,,,0
BROSKIE,2676,W BROAD ST & S SKIDMORE ST,,39.960134,-83.016842,,,,,,0
BROMAYE,2677,W BROAD ST & S MAY AVE,,39.960433,-83.014396,,,,,,0
BROFROE,2681,W BROAD ST & S FRONT ST,,39.961872,-83.002662,,,,,,0
SOURICS,2684,S SOUDER AVE & W RICH ST,,39.955044,-83.022098,,,,,,0
HAMSIMN,2686,S HAMILTON RD & SIMPSON DR,,39.951427,-82.877232,,,,,,0
SULMARTW,2687,SULLIVANT AVE & MARTIN AVE,,39.953043,-83.022941,,,,,,0
SULAVOW,2688,SULLIVANT AVE & AVONDALE AVE,,39.952557,-83.02554,,,,,,0
SULGLEW,2690,SULLIVANT AVE & S GLENWOOD AVE,,39.951932,-83.028881,,,,,,0
SULYALW,2691,SULLIVANT AVE & S YALE AVE,,39.951515,-83.031113,,,,,,0
SULPRIW,2692,SULLIVANT AVE & S PRINCETON AVE,,39.951061,-83.033609,,,,,,0
SULCENW,2694,SULLIVANT AVE & S CENTRAL AVE,,39.950553,-83.036315,,,,,,0
SULMARW,2696,SULLIVANT AVE & MARTHA AVE,,39.949824,-83.040216,,,,,,0
SULCATW,2697,SULLIVANT AVE & CATHERINE ST,,39.949371,-83.042629,,,,,,0
SULLARW,2698,SULLIVANT AVE & LARCOMB AVE,,39.9486,-83.046754,,,,,,0
SULNASW,2700,SULLIVANT AVE & NASHOBA AVE,,39.947986,-83.050079,,,,,,0
SULWREW,2701,SULLIVANT AVE & WREXHAM AVE,,39.947311,-83.053643,,,,,,0
SULWHIW,2702,SULLIVANT AVE & WHITETHORNE AVE,,39.946873,-83.055913,,,,,,0
SULCLAW,2703,SULLIVANT AVE & CLARENDON AVE,,39.946287,-83.059043,,,,,,0
SULWAYW,2705,SULLIVANT AVE & S WAYNE AVE,,39.945459,-83.063419,,,,,,0
SULTERW,2706,SULLIVANT AVE & S TERRACE AVE,,39.944921,-83.066232,,,,,,0
SULBURW,2707,SULLIVANT AVE & S BURGESS AVE,,39.944465,-83.06873,,,,,,0
SULWARW,2708,SULLIVANT AVE & S WARREN AVE,,39.944017,-83.071077,,,,,,0
SULHAGW,2709,SULLIVANT AVE & S HAGUE AVE,,39.94376,-83.073472,,,,,,0
SULCHEW,2710,SULLIVANT AVE & CHESTERSHIRE RD,,39.943652,-83.075583,,,,,,0
SULBINW,2711,SULLIVANT AVE & BINNS BLVD,,39.943522,-83.077884,,,,,,0
SULDEXE,2720,SULLIVANT AVE & DEXTER AVE,,39.942908,-83.087991,,,,,,0
SULBRIE,2722,SULLIVANT AVE & S BRINKER AVE,,39.94314,-83.083537,,,,,,0
SULBINE,2724,SULLIVANT AVE & BINNS BLVD,,39.943394,-83.078348,,,,,,0
SULCHEE,2725,SULLIVANT AVE & CHESTERSHIRE RD,,39.943513,-83.075511,,,,,,0
SULHAGE,2726,SULLIVANT AVE & S HAGUE AVE,,39.943646,-83.072726,,,,,,0
SULOGDE,2727,SULLIVANT AVE & S OGDEN AVE,,39.94411,-83.070006,,,,,,0
SULRICE,2728,SULLIVANT AVE & S RICHARDSON AVE,,39.944699,-83.066865,,,,,,0
SULEURE,2729,SULLIVANT AVE & S EUREKA AVE,,39.945158,-83.064432,,,,,,0
SULBELE,2733,SULLIVANT AVE & BELVIDERE AVE,,39.947034,-83.054244,,,,,,0
SULHILE,2734,SULLIVANT AVE & HILLTONIA AVE,,39.947532,-83.051784,,,,,,0
SULCOLE,2735,SULLIVANT AVE & COLUMBIAN AVE,,39.947883,-83.04988,,,,,,0
SULLARE,2736,SULLIVANT AVE & LARCOMB AVE,,39.948406,-83.047159,,,,,,0
SULHELE,2737,SULLIVANT AVE & HELEN ST,,39.948973,-83.044128,,,,,,0
SULRYAE,2738,SULLIVANT AVE & RYAN AVE,,39.949483,-83.041376,,,,,,0
SULGUIE,2739,SULLIVANT AVE & S GUILFORD AVE,,39.950224,-83.037428,,,,,,0
SULDANE,2740,SULLIVANT AVE & DANA AVE,,39.950775,-83.034554,,,,,,0
SULWESE,2741,SULLIVANT AVE & WEST PARK AVE,,39.951213,-83.032102,,,,,,0
SULGLEE,2742,SULLIVANT AVE & S GLENWOOD AVE,,39.951739,-83.029277,,,,,,0
SULHAWE,2744,SULLIVANT AVE & HAWKES AVE,,39.95262,-83.024662,,,,,,0
SULSOUE,2745,SULLIVANT AVE & S SOUDER AVE,0 SULLIVANT AVE & S SOUDER AVE,39.953111,-83.021961,,,,,,0
WHIPEAE,2748,E WHITTIER ST & S PEARL ST,,39.943907,-82.996275,,,,,,0
WHI3RDE,2749,E WHITTIER ST & S 3RD ST,,39.944103,-82.994569,,,,,,0
WHIJAEE,2751,E WHITTIER ST & JAEGER ST,,39.944509,-82.990369,,,,,,0
WHIBRUE,2752,E WHITTIER ST & BRUCK ST,,39.944358,-82.987563,,,,,,0
WHIPARE,2754,E WHITTIER ST & PARSONS AVE,,39.944139,-82.983296,,,,,,0
WHIANNE,2755,E WHITTIER ST & ANN ST,,39.943973,-82.980149,,,,,,0
WHIOPPE,2756,E WHITTIER ST & CARPENTER ST,,39.943733,-82.975717,,,,,,0
WHI22NE,2757,E WHITTIER ST & S 22ND ST,,39.943614,-82.97339,,,,,,0
WHICHAE,2759,E WHITTIER ST & S CHAMPION AVE,,39.94346,-82.970255,,,,,,0
WHIWILE,2760,E WHITTIER ST & WILSON AVE,,39.943335,-82.96797,,,,,,0
WHISTUE,2761,E WHITTIER ST & STUDER AVE,,39.943202,-82.965247,,,,,,0
WHIMILE,2762,E WHITTIER ST & MILLER AVE,,39.943167,-82.962342,,,,,,0
WHIKELE,2763,E WHITTIER ST & KELTON AVE,,39.943066,-82.960307,,,,,,0
WHIBERE,2764,E WHITTIER ST & BERKELEY RD,,39.943049,-82.957913,,,,,,0
WHILILW,2767,E WHITTIER ST & LILLEY AVE,0 E WHITTIER ST & LILLEY AVE,39.943164,-82.959252,,,,,,0
WHIELLW,2768,E WHITTIER ST & ELLSWORTH AVE,,39.943209,-82.960989,,,,,,0
WHILOCW,2769,E WHITTIER ST & LOCKBOURNE RD,,39.943304,-82.963427,,,,,,0
WHILINW,2770,E WHITTIER ST & LINWOOD AVE,,39.94336,-82.966146,,,,,,0
WHIOAKW,2771,E WHITTIER ST & OAKWOOD AVE,,39.94354,-82.96954,,,,,,0
WHIOHIW,2773,E WHITTIER ST & S OHIO AVE,,39.94365,-82.971743,,,,,,0
WHIGILW,2774,E WHITTIER ST & GILBERT ST,,39.943788,-82.974398,,,,,,0
WHIHEYW,2775,E WHITTIER ST & HEYL AVE,,39.94393,-82.977162,,,,,,0
WHI17TW,2776,E WHITTIER ST & S 17TH ST,,39.944033,-82.979148,,,,,,0
WHIPARW,2777,E WHITTIER ST & PARSONS AVE,,39.944219,-82.98275,,,,,,0
WHIBEEW,2778,E WHITTIER ST & BEECH ST,,39.944388,-82.985944,,,,,,0
WHIEBNW,2779,E WHITTIER ST & EBNER ST,,39.944518,-82.988402,,,,,,0
WHI5THW,2780,E WHITTIER ST & S 5TH ST,,39.944601,-82.991186,,,,,,0
WHI3RDW,2782,E WHITTIER ST & S 3RD ST,,39.944262,-82.994152,,,,,,0
PARWHIS,2787,PARSONS AVE & E WHITTIER ST,,39.94437,-82.983032,,,,,,0
PARZIMS,2788,PARSONS AVE & ZIMPFER ST,,39.942278,-82.983193,,,,,,0
PARGATS,2790,PARSONS AVE & E GATES ST,0 PARSONS AVE & HANFORD ST,39.936892,-82.983627,,,,,,0
PARFRES,2791,PARSONS AVE & FREBIS AVE,,39.935221,-82.983737,,,,,,0
PARSHES,2792,PARSONS AVE & SHELDON AVE,0 PARSONS AVE & SHELDON AVE,39.933556,-82.98388,,,,,,0
PARSOUS,2793,PARSONS AVE & SOUTHWOOD AVE,,39.931696,-82.984007,,,,,,0
PARWELS,2794,PARSONS AVE & E WELCH AVE,,39.929654,-82.984154,,,,,,0
PARINNS,2796,PARSONS AVE & E INNIS AVE,,39.925969,-82.98442,,,,,,0
PARBARS,2797,PARSONS AVE & E BARTHMAN AVE,,39.924023,-82.984572,,,,,,0
PARGROS,2798,PARSONS AVE & GROVEPORT RD,,39.918665,-82.984944,,,,,,0
PARDERS,2799,PARSONS AVE & DERING AVE,,39.912147,-82.985413,,,,,,0
PARCORS,2800,PARSONS AVE & CORR RD,,39.909565,-82.985633,,,,,,0
PARALCS,2801,PARSONS AVE & E ALCOTT RD,,39.906171,-82.985872,,,,,,0
PARZIES,2802,PARSONS AVE & ZIEGLER AVE,,39.902834,-82.986129,,,,,,0
PARRUMS,2806,PARSONS AVE & RUMSEY RD,,39.893598,-82.986856,,,,,,0
PARWILN,2810,PARSONS AVE & WILLIAMS RD,0 PARSONS AVE & WILLIAMS RD,39.891613,-82.986895,,,,,,0
PARRUMN,2811,PARSONS AVE & RUMSEY AVE,PARSONS AVE & RUMSEY RD,39.893727,-82.986718,,,,,,0
PARHILN,2812,PARSONS AVE & HILOCK AVE,,39.897323,-82.986441,,,,,,0
PARZIEN,2814,PARSONS AVE & ZIEGLER AVE,,39.902777,-82.986003,,,,,,0
PARALCN,2815,PARSONS AVE & E ALCOTT RD,,39.906048,-82.985757,,,,,,0
PARCORN,2816,PARSONS AVE & CORR RD,,39.908945,-82.985545,,,,,,0
PARDERN,2817,PARSONS AVE & DERING AVE,,39.912205,-82.985282,,,,,,0
PARMARN,2819,PARSONS AVE & MARION RD,,39.923521,-82.984465,,,,,,0
PARINNN,2820,PARSONS AVE & E INNIS AVE,,39.925987,-82.984222,,,,,,0
PARMORN,2822,PARSONS AVE & E MORRILL AVE,,39.929631,-82.983988,,,,,,0
PARMARN1,2823,PARSONS AVE & E MARKISON AVE,,39.931041,-82.983873,,,,,,0
PARJENN,2824,PARSONS AVE & E JENKINS AVE,,39.933484,-82.983699,,,,,,0
PARFREN,2825,PARSONS AVE & FREBIS AVE,,39.935321,-82.983561,,,,,,0
PARGATN,2826,PARSONS AVE & E GATES ST,,39.937368,-82.983404,,,,,,0
PARTHUN,2827,PARSONS AVE & THURMAN AVE,,39.939444,-82.983234,,,,,,0
PARSTEN,2828,PARSONS AVE & STEWART AVE,0 PARSONS AVE & ZIMPFER ST,39.941821,-82.983037,,,,,,0
PARSYCN,2831,PARSONS AVE & SYCAMORE ST,,39.949545,-82.982472,,,,,,0
PARGROVN,2838,PARSONS AVE & GROVEPORT RD,PARSONS AVE & GROVEPORT PIKE LOOP,39.918553,-82.984788,,,,,,0
NORZOLS,2851,NORTHWEST BLVD & ZOLLINGER RD,,40.018418,-83.057507,,,,,,0
NORRIDS,2852,NORTHWEST BLVD & RIDGEVIEW RD,,40.01459,-83.057767,,,,,,0
NORNORTS,2853,NORTHWEST BLVD & NORTHAM RD,,40.011935,-83.057948,,,,,,0
NORLANSE,2855,NORTHWEST BLVD & W LANE AVE,,40.006844,-83.058296,,,,,,0
NORSUFSE,2857,NORTHWEST BLVD & SUFFOLK RD,,40.003773,-83.058154,,,,,,0
NORGUISE,2858,NORTHWEST BLVD & GUILFORD RD,,40.001889,-83.055682,,,,,,0
NORBARSE,2859,NORTHWEST BLVD & BARRINGTON RD,,40.00021,-83.05453,,,,,,0
NORGLESE,2860,NORTHWEST BLVD & GLENN AVE,,39.998389,-83.052572,,,,,,0
NORSTASE,2862,NORTHWEST BLVD & STANFORD RD,,39.996632,-83.049077,,,,,,0
NORNORSE,2864,NORTHWEST BLVD & NORTHWEST CT,,39.995769,-83.046908,,,,,,0
NORCHASE,2865,NORTHWEST BLVD & CHAMBERS RD,,39.993449,-83.04192,,,,,,0
NOR5THS,2867,NORTHWEST BLVD & W 5TH AVE,,39.988853,-83.040987,,,,,,0
NORTHOSE,2868,NORTHWEST BLVD & THORNWOOD PL,,39.986828,-83.041071,,,,,,0
3RDMEAW,2879,W 3RD AVE & MEADOW RD,,39.984907,-83.038736,,,,,,0
NORKINN,2880,NORTHWEST BLVD & KING AVE,,39.991291,-83.040485,,,,,,0
NORINDNW,2882,NORTHWEST BLVD & INDEPENDENCE RD,,39.994936,-83.04478,,,,,,0
NORNORN,2883,NORTHWEST BLVD & NORTHWEST CT,,39.995713,-83.04645,,,,,,0
NORNORNW,2884,NORTHWEST BLVD & NORTH STAR RD,,39.996821,-83.049106,,,,,,0
NORWILSN,2885,NORTHWEST BLVD & WILSHIRE DR,,40.009509,-83.057914,,,,,,0
NORRIDN,2887,NORTHWEST BLVD & RIDGEVIEW RD,,40.014351,-83.057615,,,,,,0
FISCHAW,2894,FISHINGER RD & CHAUCER DR,,40.024138,-83.050373,,,,,,0
FISPEMW,2895,FISHINGER RD & PEMBERTON DR,,40.024289,-83.054341,,,,,,0
HIGBROS,2900,N HIGH ST & W BROAD ST,,39.962784,-83.000898,,,,,,0
VANREDS,2901,VANTAGE DR & RED ROOF INN,,40.116275,-83.014575,,,,,,0
HENGETE,2902,HENDERSON RD & GETTYSBURG RD,,40.055926,-83.072275,,,,,,0
GOO582W,2906,582 W GOODALE ST,,39.97427,-83.01907,,,,,,0
GOOYARW,2907,GOODALE BLVD & YARD ST,0 GOODALE BLVD & EDGEWORTH ST,39.974283,-83.024355,,,,,,0
NORGOON,2908,NORTHWEST BLVD & GOODALE BLVD,,39.974748,-83.02899,,,,,,0
NORBURNW,2909,NORTHWEST BLVD & BURR AVE,,39.976426,-83.029123,,,,,,0
NORWILLN,2910,NORTHWEST BLVD & WILLIAMS AVE,,39.977917,-83.029786,,,,,,0
1STNORW,2911,W 1ST AVE & NORTHWEST BLVD,0 NORTHWEST BLVD & COPELAND RD,39.979918,-83.032263,,,,,,0
1STOXLW,2912,W 1ST AVE & OXLEY RD,,39.979909,-83.034462,,,,,,0
1STVIRW,2913,W 1ST AVE & VIRGINIA AVE,,39.981165,-83.037583,,,,,,0
1STWILW,2914,W 1ST AVE & WILLARD AVE,,39.981563,-83.038645,,,,,,0
1STAVOW,2915,W 1ST AVE & AVONDALE AVE,,39.981752,-83.041755,,,,,,0
1STGRAW,2916,W 1ST AVE & GRANDVIEW AVE,,39.9819,-83.044788,,,,,,0
1STOAKW,2918,W 1ST AVE & OAKLAND AVE,,39.982084,-83.049023,,,,,,0
1STELMW,2919,W 1ST AVE & ELMWOOD AVE,,39.982187,-83.051568,,,,,,0
1STGLEW,2920,W 1ST AVE & GLENN AVE,,39.98228,-83.054012,,,,,,0
1STLINW,2921,W 1ST AVE & LINCOLN RD,,39.982395,-83.05661,,,,,,0
3RDCAMW,2924,W 3RD AVE & CAMBRIDGE BLVD,,39.985763,-83.058261,,,,,,0
ARLCARN,2925,ARLINGTON AVE & CARDIGAN AVE,,39.986528,-83.059826,,,,,,0
5THARLW,2926,W 5TH AVE & ARLINGTON AVE,0 W 5TH AVE & ARLINGTON AVE,39.989516,-83.05997,,,,,,0
ARLCARS,2930,ARLINGTON AVE & CARDIGAN AVE,,39.986919,-83.06001,,,,,,0
3RDCAME,2932,W 3RD AVE & CAMBRIDGE BLVD,,39.98563,-83.058258,,,,,,0
CAM1STS,2933,CAMBRIDGE BLVD & W 1ST AVE,,39.982498,-83.058256,,,,,,0
1STWYAE,2934,W 1ST AVE & WYANDOTTE RD,,39.982229,-83.055608,,,,,,0
1STWESE,2935,W 1ST AVE & WESTWOOD AVE,,39.982121,-83.053097,,,,,,0
1STASHE,2936,W 1ST AVE & ASHLAND AVE,,39.98201,-83.050584,,,,,,0
1STFAIE,2937,W 1ST AVE & FAIRVIEW AVE,,39.981902,-83.048058,,,,,,0
1STGLEE,2939,W 1ST AVE & GLENDALE AVE,,39.981723,-83.043592,,,,,,0
1STHOPE,2940,W 1ST AVE & HOPE AVE,,39.98161,-83.04033,,,,,,0
1STVIRE,2941,W 1ST AVE & VIRGINIA AVE,,39.981004,-83.037554,,,,,,0
1STOXLE,2942,W 1ST AVE & OXLEY RD,,39.979784,-83.034232,,,,,,0
NOR1STSE,2943,NORTHWEST BLVD & W 1ST AVE,NORTHWEST BLVD & FIRST AVE,39.979639,-83.031807,,,,,,0
NORBURSE,2945,NORTHWEST BLVD & BURR AVE,NORTHWEST BLVD & MCGUFFEY RD,39.976609,-83.02946,,,,,,0
NORGOOS,2946,NORTHWEST BLVD & GOODALE BLVD,,39.975217,-83.029253,,,,,,0
GOOYARE,2947,GOODALE BLVD & YARD ST,,39.974155,-83.026087,,,,,,0
HARMOUS,2953,HARRISBURG PIKE & W MOUND ST,,39.944598,-83.03676,,,,,,0
HAR771S,2954,771 HARRISBURG PIKE,,39.941801,-83.038883,,,,,,0
HARGARS,2955,HARRISBURG PIKE & GARLING AVE,,39.939857,-83.040383,,,,,,0
HARRANS,2957,HARRISBURG PIKE & RANSBURG AVE,,39.937478,-83.042234,,,,,,0
HARROSS,2958,HARRISBURG PIKE & ROSEMONT AVE,,39.935892,-83.04356,,,,,,0
HAR111S,2959,1117 HARRISBURG PIKE,,39.933376,-83.046741,,,,,,0
HAREAKS1,2960,HARRISBURG PIKE & EAKIN RD,,39.931736,-83.048828,,,,,,0
HAR151S,2961,1515 HARRISBURG PIKE,,39.926455,-83.057117,,,,,,0
HAR165S,2963,1657 HARRISBURG PIKE,,39.92376,-83.059245,,,,,,0
HARCLIS,2964,HARRISBURG PIKE & CLIME RD,,39.920682,-83.061769,,,,,,0
HARALKS,2965,HARRISBURG PIKE & ALKIRE RD,,39.915351,-83.065867,,,,,,0
HARBLUS,2966,HARRISBURG PIKE & BLUE ROCK BLVD,,39.910811,-83.069723,,,,,,0
HARHYDS,2967,HARRISBURG PIKE & HYDE RD,,39.908824,-83.071703,,,,,,0
BROHOMS,2968,BROADWAY & HOME RD,BROADWAY & HOME ROAD,39.901241,-83.077992,,,,,,0
BROROSS,2973,BROADWAY & ROSE AVE,,39.887921,-83.0887,,,,,,0
BROBURS,2974,BROADWAY & BURR OAK DR,,39.885685,-83.090703,,,,,,0
COLLEIW,2988,COLUMBUS ST & LEITHART DR,,39.881346,-83.072005,,,,,,0
COLSECW,2989,COLUMBUS ST & SECURITY DR,,39.881418,-83.076878,,,,,,0
RICSOUNF,2993,RICHARD AVE & SOUTHWEST BLVD,,39.891228,-83.080382,,,,,,0
RICADDN,2994,RICHARD AVE & ADDISON DR,,39.892893,-83.080106,,,,,,0
RICPARN,2995,RICHARD AVE & PARLIN DR,,39.895041,-83.07882,,,,,,0
PARBROW,2996,PARLIN DR & BROADWAY,0 PARLIN DR & BROADWAY,39.895297,-83.081319,,,,,,0
BROCENN,2997,BROADWAY & CENTRAL AVE,,39.897753,-83.080445,,,,,,0
BRO3136,2998,3136 BROADWAY,,39.899972,-83.078791,,,,,,0
HARHYDN,2999,HARRISBURG PIKE & HYDE RD,,39.908837,-83.071354,,,,,,0
HARREDN,3000,HARRISBURG PIKE & RED ROCK BLVD,,39.914245,-83.066387,,,,,,0
HARBIGN,3001,HARRISBURG PIKE & BIG RUN RD E,,39.916418,-83.06485,,,,,,0
HAR196N,3002,1896 HARRISBURG PIKE,,39.918972,-83.063003,,,,,,0
HARFRAN,3003,HARRISBURG PIKE & FRANK RD,,39.921581,-83.060869,,,,,,0
HAROCTN,3005,HARRISBURG PIKE & OCTOBER RIDGE DR,,39.92659,-83.056794,,,,,,0
HARHOPN,3006,HARRISBURG PIKE & HOPKINS AVE,,39.932278,-83.047905,,,,,,0
HARBELN,3007,HARRISBURG PIKE & BELMEAD AVE,,39.933288,-83.046596,,,,,,0
HARLAUN,3008,HARRISBURG PIKE & LAUREL AVE,,39.934822,-83.044648,,,,,,0
HARROSN,3009,HARRISBURG PIKE & ROSEMONT AVE,,39.935934,-83.043291,,,,,,0
HARRANN,3010,HARRISBURG PIKE & RANSBURG AVE,,39.93707,-83.04234,,,,,,0
HARGARN,3011,HARRISBURG PIKE & GARLING AVE,,39.939738,-83.040259,,,,,,0
HAR800N,3012,800 HARRISBURG PIKE,,39.941841,-83.038653,,,,,,0
FIE5THN,3014,FIELDS AVE & E 5TH AVE,,39.987148,-82.991977,,,,,,0
SHAJEWN,3038,SHARON WOODS BLVD & JEWETT DR,,40.097306,-82.963005,,,,,,0
SHACARN,3039,SHARON WOODS BLVD & CARDINGTON AVE,,40.10007,-82.962101,,,,,,0
SHABRON,3040,SHARON WOODS BLVD & BROOKHURST AVE,,40.10376,-82.963109,,,,,,0
REFCOUE,3067,REFUGEE RD & COURTRIGHT RD,REFUGEE RD & ASKINS RD,39.916383,-82.897316,,,,,,0
CLEBLEN1,3072,CLEVELAND AVE & BLENDON WOODS BLVD,,40.093262,-82.950309,,,,,,0
CLEBELLN,3073,CLEVELAND AVE & BELLA VIA AVE,,40.096009,-82.950126,,,,,,0
CLEHOMN,3074,CLEVELAND AVE & HOME ACRE DR,,40.097984,-82.94997,,,,,,0
CLESCHN,3075,S CLEVELAND AVE & SCHROCK RD,,40.111202,-82.948981,,,,,,0
CLE340N,3077,340 S CLEVELAND AVE,,40.11617,-82.948658,,,,,,0
CLEDEES,3078,CLEVELAND AVE & DEEWOOD DR,,40.096322,-82.950306,,,,,,0
CLEBLES1,3079,CLEVELAND AVE & BLENDON WOODS BLVD,CLEVELAND AVE & LAURELWOOD DR,40.093198,-82.950585,,,,,,0
CLEFUJS,3081,CLEVELAND AVE & FUJI DR,,40.087979,-82.950942,,,,,,0
CLEMORN,3086,CLEVELAND AVE & MORSE RD,,40.059093,-82.952906,,,,,,0
CLENORWN,3088,CLEVELAND AVE & NORTHWOLD RD,,40.066577,-82.95229,,,,,,0
161FORW,3094,STATE ROUTE 161 & FOREST HILLS BLVD,,40.084191,-82.9448,,,,,,0
STASCHN,3099,S STATE ST & E SCHROCK RD,,40.110048,-82.925579,,,,,,0
STACHEN,3101,S STATE ST & CHERRINGTON RD,,40.113792,-82.926981,,,,,,0
STAWALN,3103,S STATE ST & E WALNUT ST,,40.121968,-82.93005,,,,,,0
NEIKINN,3105,NEIL AVE & KING AVE,,39.990619,-83.013646,,,,,,0
STAWALS,3114,S STATE ST & W WALNUT ST,,40.121327,-82.930036,,,,,,0
STAHIAS,3115,S STATE ST & HIAWATHA AVE,,40.117955,-82.928772,,,,,,0
STACHES,3117,S STATE ST & CHERRINGTON RD,,40.114198,-82.927392,,,,,,0
STASCHS,3119,S STATE ST & E SCHROCK RD,,40.110404,-82.925987,,,,,,0
161FORE,3124,STATE ROUTE 161 & FOREST HILLS BLVD,STATE RTE 161 N SVC RD,40.084097,-82.944773,,,,,,0
CLE161SF,3125,CLEVELAND AVE & STATE ROUTE 161,,40.084291,-82.951256,,,,,,0
CLETAYS,3131,CLEVELAND AVE & TAYMOUTH RD,,40.06637,-82.952576,,,,,,0
CLEMORS,3133,CLEVELAND AVE & MORSE RD,,40.05874,-82.953231,,,,,,0
CLECOOS,3137,CLEVELAND AVE & E COOKE RD,,40.043961,-82.959185,,,,,,0
CLEELMS,3139,CLEVELAND AVE & NORTHERN LIGHTS PARK & RIDE,,40.040703,-82.961229,,,,,,0
MAINOEE,3140,E MAIN ST & NOE BIXBY RD,,39.954627,-82.851954,,,,,,0
SPRFROW,3142,W SPRING ST & N FRONT ST,,39.966198,-83.002659,,,,,,0
MAINOEW,3143,E MAIN ST & NOE BIXBY RD,,39.954821,-82.852019,,,,,,0
HARZETS,3146,HARRISBURG PIKE & ZETTLER CENTER DR,,39.930179,-83.051236,,,,,,0
CAS10TN,3147,N CASSADY AVE & E 10TH AVE,,39.989683,-82.930521,,,,,,0
CAS13TN,3148,N CASSADY AVE & E 13TH AVE,,39.992378,-82.930257,,,,,,0
CASBAYN,3153,N CASSADY AVE & BAYLOR AVE,,40.013894,-82.929095,,,,,,0
CASCASN,3155,N CASSADY AVE & CASSADY VILLAGE TRL,,40.016826,-82.928908,,,,,,0
AGLPENE,3156,AGLER RD & PENDLETON PL,,40.020973,-82.926693,,,,,,0
CASAGLS,3172,N CASSADY AVE & AGLER RD,,40.020302,-82.928788,,,,,,0
CASBAYS,3174,N CASSADY AVE & BAYLOR AVE,,40.013369,-82.929234,,,,,,0
KENLONS,3175,KENNY RD & LONDON DR,,40.02795,-83.046962,,,,,,0
5THTAYE,3176,E 5TH AVE & TAYLOR AVE,,39.985181,-82.960569,,,,,,0
5THSTEE,3177,E 5TH AVE & STERLING AVE,,39.98465,-82.91991,,,,,,0
5THJAME,3178,E 5TH AVE & N JAMES RD,,39.984401,-82.90864,,,,,,0
CASKENS,3179,N CASSADY AVE & KENILWORTH RD,,39.992089,-82.930441,,,,,,0
CAS5THS,3181,N CASSADY AVE & E 5TH AVE,,39.985422,-82.931571,,,,,,0
5TH7THE,3184,E 5TH AVE & E 7TH AVE,,39.98515,-82.904657,,,,,,0
5TH370E,3185,3706 E 5TH AVE,,39.985617,-82.899689,,,,,,0
LIVNOEE,3187,E LIVINGSTON AVE & NOE BIXBY RD,,39.943327,-82.853257,,,,,,0
LIVLONE,3188,E LIVINGSTON AVE & LONSDALE RD,,39.943151,-82.850303,,,,,,0
LIVBAIE,3189,E LIVINGSTON AVE & BAIRSFORD DR,,39.943061,-82.843992,,,,,,0
LIVWALE,3190,E LIVINGSTON AVE & WALNUT HILL BLVD,,39.942442,-82.837842,,,,,,0
LIVSARE,3191,E LIVINGSTON AVE & SARANAC DR,,39.942271,-82.835386,,,,,,0
LIVBRIE,3192,E LIVINGSTON AVE & BRICE RD,,39.94199,-82.830305,,,,,,0
MAIHAFE,3200,E MAIN ST & HAFT DR,,39.95511,-82.806287,,,,,,0
MAIJACE,3202,E MAIN ST & JACKSON ST,,39.955227,-82.800432,,,,,,0
MAIGRAHE,3203,E MAIN ST & GRAHAM RD,,39.955316,-82.79567,,,,,,0
5TH430E,3204,4301 E 5TH AVE,,39.987177,-82.889541,,,,,,0
5TH4301W,3205,4301 E 5TH AVE,,39.987453,-82.889418,,,,,,0
MAIJACW,3206,E MAIN ST & JACKSON ST,,39.955393,-82.800558,,,,,,0
MAIHAFW,3208,E MAIN ST & HAFT DR,,39.955276,-82.806418,,,,,,0
MAIHENW,3210,E MAIN ST & HENTZ DR,,39.955131,-82.814658,,,,,,0
SAIBUCN,3216,SAINT CLAIR AVE & BUCKINGHAM ST,,39.972809,-82.980709,,,,,,0
LIVBAIW,3217,E LIVINGSTON AVE & BAIRSFORD DR,,39.943195,-82.844263,,,,,,0
LIVLONW,3218,E LIVINGSTON AVE & LONSDALE RD,,39.943306,-82.849881,,,,,,0
LIVNOEW,3219,E LIVINGSTON AVE & NOE BIXBY RD,0 E LIVINGSTON AVE & NOE BIXBY RD,39.943505,-82.85337,,,,,,0
5TH3925W,3220,3925 E 5TH AVE,,39.985807,-82.900114,,,,,,0
REFNOEW,3228,REFUGEE RD & NOE BIXBY RD,,39.91533,-82.864097,,,,,,0
REFTENW,3230,REFUGEE RD & TENNYSON BLVD,,39.915215,-82.873635,,,,,,0
REFCOUW,3233,REFUGEE RD & COURTRIGHT RD,,39.916567,-82.897403,,,,,,0
REFWEYW,3234,REFUGEE RD & WEYBURN RD,,39.916934,-82.904236,,,,,,0
5TH7THW,3237,E 5TH AVE & E 7TH AVE,,39.98538,-82.90485,,,,,,0
REFSCHE,3238,REFUGEE RD & SCHWARTZ RD,,39.917011,-82.90872,,,,,,0
REFWEYE,3239,REFUGEE RD & WEYBURN RD,,39.916702,-82.903211,,,,,,0
REFCITE,3242,REFUGEE RD & CITIZENS PL,,39.915309,-82.878449,,,,,,0
REFTENE,3243,REFUGEE RD & TENNYSON BLVD,0 REFUGEE RD & TENNYSON BLVD,39.915086,-82.874011,,,,,,0
CHANOEE,3245,CHATTERTON RD & NOE BIXBY RD,,39.915428,-82.862535,,,,,,0
5THJAMW,3251,E 5TH AVE & N JAMES RD,,39.984769,-82.908171,,,,,,0
5THTAYW,3262,E 5TH AVE & TAYLOR AVE,,39.985362,-82.960053,,,,,,0
HILNIKN,3296,HILLIARD ROME RD & NIKE DR,,39.994632,-83.152319,,,,,,0
HILROBN,3297,HILLIARD ROME & ROBERTS RD,HILLIARD ROME RD & ROBERTS RD,40.004185,-83.153716,,,,,,0
MAILUTN,3298,MAIN ST & LUTHER LN,,40.02266,-83.160043,,,,,,0
CEMOUTE,3304,CEMETERY RD & OUTER ST,,40.031343,-83.143206,,,,,,0
CEMLEAE,3305,CEMETERY RD & LEAP RD,,40.03168,-83.139513,,,,,,0
5THSAIW,3307,E 5TH AVE & SAINT CLAIR AVE,,39.986139,-82.979981,,,,,,0
SAIOLDN,3330,SAINT CLAIR AVE & LEONARD AVE,,39.975627,-82.980455,,,,,,0
MAILUTS,3334,MAIN ST & LUTHER LN,,40.022587,-83.160275,,,,,,0
FISKENW,3339,FISHINGER RD & KENNY RD,,40.023539,-83.0437,,,,,,0
MCK3265S,3340,3265 MCKINLEY AVE,,39.993652,-83.0837,,,,,,0
FISEASE,3343,FISHINGER RD & EASTON PL,,40.02339,-83.044368,,,,,,0
KENOBEN,3344,KENNY RD & OBERLIN DR,,40.026031,-83.045016,,,,,,0
KARHEMN,3349,KARL RD & HEMPWOOD DR,,40.084416,-82.975401,,,,,,0
KAR603S,3356,6035 KARL RD,,40.090457,-82.975467,,,,,,0
KAR629N,3367,6292 KARL RD,,40.095763,-82.975972,,,,,,0
REFCITW1,3416,REFUGEE RD & CITIZENS PL,0 REFUGEE RD & CITIZENS PL,39.915399,-82.87665,,,,,,0
REFSCHW,3417,REFUGEE RD & SCHWARTZ RD,,39.91719,-82.908937,,,,,,0
OLE3230N,3421,3230 OLENTANGY RIVER RD,,40.025738,-83.026451,,,,,,0
NORSHAW,3423,W NORTH BROADWAY & SHATTUCK AVE,,40.029263,-83.042184,,,,,,0
NORCLEW,3424,W NORTH BROADWAY & CLEARVIEW AVE,,40.028778,-83.04627,,,,,,0
KENKENBN,3426,KENNY RD & KENBROOK COMMON ST,,40.030699,-83.049124,,,,,,0
KENTREN,3427,KENNY RD & TREMONT RD,,40.03257,-83.050712,,,,,,0
KENMILN,3429,KENNY RD & MILLCREEK LN,,40.036435,-83.050652,,,,,,0
KENHIGN,3431,KENNY RD & HIGHLAND DR,,40.040338,-83.050394,,,,,,0
KENPARN,3433,KENNY RD & PARKLEIGH RD,,40.043278,-83.050213,,,,,,0
KENWINN,3435,KENNY RD & WINDHAM RD,,40.046911,-83.049948,,,,,,0
KENFOLN,3437,KENNY RD & FOLKESTONE RD,,40.050027,-83.049705,,,,,,0
MAISTAW,3438,W MAIN ST & N STATE ST,0 W MAIN ST & WALKER ALY,40.126509,-82.932843,,,,,,0
KENMERN,3439,KENNY RD & MERRIMAR CIR S,,40.054186,-83.04946,,,,,,0
KENWEYN,3441,KENNY RD & WEYBRIDGE RD,,40.056467,-83.049341,,,,,,0
MOUGRANW,3450,MOUNT VERNON AVE & N GRANT AVE,,39.969368,-82.992371,,,,,,0
GODLANSE,3454,GODOWN RD & LANGLAND DR,,40.061422,-83.053278,,,,,,0
GODCHEE,3455,GODOWN RD & CHEVIOT DR,,40.060205,-83.051323,,,,,,0
KENWEYS,3472,KENNY RD & WEYBRIDGE RD,,40.056633,-83.049479,,,,,,0
KENMERS,3474,KENNY RD & MERRIMAR CIR N,,40.054007,-83.049673,,,,,,0
KENFOLS,3476,KENNY RD & FOLKESTONE RD,,40.05047,-83.04988,,,,,,0
KENWINS,3478,KENNY RD & WINDHAM RD,,40.046519,-83.050145,,,,,,0
KENPARS,3480,KENNY RD & PARKLEIGH RD,,40.04322,-83.05039,,,,,,0
KENMCCS,3482,KENNY RD & MCCOY RD,,40.040284,-83.050601,,,,,,0
KENMILS,3484,KENNY RD & MILLCREEK LN,,40.036623,-83.050859,,,,,,0
NORCLEE,3488,W NORTH BROADWAY & CLEARVIEW AVE,,40.028722,-83.04561,,,,,,0
NORSHAE,3489,W NORTH BROADWAY & SHATTUCK AVE,,40.029009,-83.042526,,,,,,0
NORENTE,3490,W NORTH BROADWAY & RIVERSIDE HOSP,,40.029293,-83.034625,,,,,,0
OLEUNIS,3491,OLENTANGY RIVER RD & UNION CEMETERY,,40.0271,-83.027842,,,,,,0
MAIHEAE,3492,E MAIN ST & HEATHERWOOD DR,,39.954719,-82.85471,,,,,,0
LINSHANW,3496,LINWORTH RD & SHARON HILL DR,,40.068122,-83.040525,,,,,,0
LINMEENW,3498,LINWORTH RD & MEEKLYNN DR,,40.075223,-83.044871,,,,,,0
LINROCN,3499,LINWORTH RD & ROCKY RILL RD,,40.07779,-83.047443,,,,,,0
LINSEDN,3500,LINWORTH RD & SEDGWICK RD,,40.083399,-83.049701,,,,,,0
LIN161N,3502,LINWORTH RD & STATE ROUTE 161,,40.0899,-83.049447,,,,,,0
OLEOLDES,3508,OLENTANGY RIVER RD & OLDE TOWNE AVE,,40.058588,-83.034743,,,,,,0
MAIMCNE,3515,E MAIN ST & MCNAUGHTEN RD,,39.954576,-82.837896,,,,,,0
MAIIDLE,3518,E MAIN ST & IDLEWILD DR,,39.9547,-82.831145,,,,,,0
MAIBRICE,3519,E MAIN ST & BRICE RD,,39.954739,-82.8279,,,,,,0
MAI652E,3520,6523 E MAIN ST,,39.9548,-82.823548,,,,,,0
OLEOLDEN,3521,OLENTANGY RIVER RD & OLDE TOWNE AVE,,40.05827,-83.034474,,,,,,0
REYRIDSW,3522,REYNOLDSBURG PARK & RIDE,2100 BIRCHVIEW DR & REYNOLDSBURG P & R,39.939288,-82.82751,,,,,,0
OLELANN,3524,OLENTANGY RIVER RD & W LANE AVE,,40.007254,-83.022949,,,,,,0
GRA5THS,3525,GRANDVIEW AVE & W 5TH AVE,,39.988404,-83.044554,,,,,,0
MAIROSEE,3526,E MAIN ST & ROSEHILL RD,,39.954888,-82.818742,,,,,,0
MAIHENE,3527,E MAIN ST & HENTZ DR,,39.954955,-82.814776,,,,,,0
ALUCORN,3535,ALUM CREEK DR & CORVAIR BLVD,0 ALUM CREEK DR & CORVAIR BLVD,39.928006,-82.93786,,,,,,0
ALUFRAN,3536,ALUM CREEK DR & INTEGRITY DR S,0 ALUM CREEK DR & FREBIS AVE,39.93246,-82.941667,,,,,,0
FREALUW,3537,FREBIS AVE & ALUM CREEK DR,,39.933749,-82.943233,,,,,,0
FREFREW,3538,FREBIS AVE & FREBIS LN,,39.933841,-82.947351,,,,,,0
FRETHEW,3539,FREBIS AVE & THELMA B KEE,,39.934052,-82.952008,,,,,,0
FREFAIW,3540,FREBIS AVE & FAIRWOOD AVE,,39.93417,-82.954704,,,,,,0
FREBERW,3541,FREBIS AVE & BERKELEY RD,,39.934357,-82.958603,,,,,,0
FREELLW,3542,FREBIS AVE & ELLSWORTH AVE,,39.934519,-82.961784,,,,,,0
CHAMITN,3547,S CHAMPION AVE & E MITHOFF ST,,39.937615,-82.97093,,,,,,0
CHAWHIN,3550,S CHAMPION AVE & E WHITTIER ST,,39.943215,-82.970519,,,,,,0
CHAKOSN,3551,S CHAMPION AVE & E KOSSUTH ST,,39.945417,-82.970363,,,,,,0
CHAFORN,3552,S CHAMPION AVE & FOREST ST,,39.947384,-82.970206,,,,,,0
CHALIVN,3553,S CHAMPION AVE & E LIVINGSTON AVE,,39.949974,-82.97001,,,,,,0
CHANEWN,3554,S CHAMPION AVE & NEWTON ST,,39.95129,-82.969905,,,,,,0
CHAFULN,3555,S CHAMPION AVE & E FULTON ST,,39.955558,-82.969573,,,,,,0
CHAMAIN,3556,S CHAMPION AVE & E MAIN ST,,39.957622,-82.969418,,,,,,0
CHABRYN,3557,S CHAMPION AVE & BRYDEN RD,,39.960728,-82.969144,,,,,,0
CHAOAKN,3558,S CHAMPION AVE & OAK ST,,39.962495,-82.969013,,,,,,0
GOVBRON,3559,GOVERNOR PL & E BROAD ST,,39.966505,-82.968449,,,,,,0
OHIBROS,3567,S OHIO AVE & E BROAD ST,0 S OHIO AVE & E BROAD ST,39.965367,-82.970317,,,,,,0
OHIOAKS,3568,S OHIO AVE & OAK ST,,39.962875,-82.970535,,,,,,0
OHIBRYS,3569,S OHIO AVE & BRYDEN RD, Unit CANNON DR & BRYDEN RD,39.960755,-82.970706,,,,,,0
OHIMAIS,3570,S OHIO AVE & E MAIN ST,,39.957616,-82.970933,,,,,,0
OHIMOOS,3572,S OHIO AVE & MOOBERRY ST,,39.953033,-82.971289,,,,,,0
OHILIVS,3573,S OHIO AVE & E LIVINGSTON AVE,,39.949988,-82.971534,,,,,,0
OHISYCS,3574,S OHIO AVE & E SYCAMORE ST,,39.948509,-82.971636,,,,,,0
OHICOLS,3575,S OHIO AVE & E COLUMBUS ST,,39.946326,-82.971797,,,,,,0
OHIWHIS,3576,S OHIO AVE & E WHITTIER ST,,39.943753,-82.971985,,,,,,0
MORKARE1,3577,MORSE RD & KARL RD,,40.060366,-82.9764,,,,,,0
OHISTES,3578,S OHIO AVE & STEWART AVE,,39.941056,-82.972175,,,,,,0
OHITHUS,3579,S OHIO AVE & THURMAN AVE,,39.93845,-82.972384,,,,,,0
FREBERE,3585,FREBIS AVE & BERKELEY RD,,39.934228,-82.958424,,,,,,0
FRETHEE,3587,FREBIS AVE & THELMA B KEE,,39.93394,-82.952247,,,,,,0
ALUFRES,3590,ALUM CREEK DR & FREBIS AVE,0 ALUM CREEK DR & FREBIS AVE,39.933206,-82.942316,,,,,,0
ALUCORS,3591,ALUM CREEK DR & CORVAIR BLVD,0 ALUM CREEK DR & CORVAIR BLVD,39.928247,-82.938412,,,,,,0
NOTDORW,3622,NOTTINGHAM RD & S DORCHESTER RD,,40.025542,-83.080239,,,,,,0
NOTKIOW,3623,NOTTINGHAM RD & KIOKA AVE,,40.025739,-83.08394,,,,,,0
NOTMOUW,3629,NOTTINGHAM RD & MOUNTVIEW RD,,40.025249,-83.07301,,,,,,0
NOTRAMW,3631,NOTTINGHAM RD & RAMSGATE RD,,40.025391,-83.076578,,,,,,0
RIDMOUW,3632,RIDGECLIFF RD & MOUNTVIEW RD,,40.023126,-83.072355,,,,,,0
HUDDAYW,3650,E HUDSON ST & DAYTON AVE,,40.01542,-83.004339,,,,,,0
HUDADAW,3651,E HUDSON ST & ADAMS AVE,,40.015167,-83.007355,,,,,,0
5THNORW,3653,E 5TH AVE & NORTHVIEW AVE,,39.985304,-82.933799,,,,,,0
OAKOAKW,3654,OAKLAND PARK AVE & OAKLAWN ST,0 OAKLAND PARK AVE & KENLAWN ST,40.031557,-82.968087,,,,,,0
OAKNORW,3656,OAKLAND PARK AVE & NORWOOD ST,,40.031724,-82.971864,,,,,,0
OAKOPPW,3657,OAKLAND PARK AVE & ONTARIO ST,,40.031901,-82.975354,,,,,,0
GRA3RDS,3658,GRANDVIEW AVE & W 3RD AVE,,39.985258,-83.044828,,,,,,0
MAIENFE,3660,E MAIN ST & ENFIELD RD,,39.956662,-82.920388,,,,,,0
OLE3440S,3662,3440 OLENTANGY RIVER RD,0 OLENTANGY RIVER RD & RAMP RAMP,40.028876,-83.029307,,,,,,0
OAKEISW,3663,OAKLAND PARK AVE & EISENHOWER RD,,40.032759,-82.993404,,,,,,0
EISBROS,3664,EISENHOWER RD & E NORTH BROADWAY,,40.031216,-82.993675,,,,,,0
NORINDW,3665,E NORTH BROADWAY ST & INDIANOLA AVE,,40.031367,-83.001399,,,,,,0
NORHIGW,3669,W NORTH BROADWAY & N HIGH ST,,40.03168,-83.016675,,,,,,0
NORMILW,3670,W NORTH BROADWAY & MILTON AVE,,40.031758,-83.020862,,,,,,0
NORMILE,3673,W NORTH BROADWAY & MILTON AVE,,40.031627,-83.021425,,,,,,0
NORHIGE,3674,W NORTH BROADWAY & N HIGH ST,0 W NORTH BROADWAY & E NORTH BROADWAY,40.031533,-83.016994,,,,,,0
MAIBRIE,3703,E MAIN ST & BRIARCLIFF RD,,39.955013,-82.811482,,,,,,0
MAIROSEW,3704,E MAIN ST & ROSEHILL RD,,39.955046,-82.819555,,,,,,0
MAI650W,3705,6500 E MAIN ST,,39.954988,-82.822763,,,,,,0
MAIBRICW,3706,E MAIN ST & BRICE RD,,39.954886,-82.829671,,,,,,0
MAIMCNW,3707,E MAIN ST & MCNAUGHTEN RD,,39.954865,-82.837129,,,,,,0
MAIHEAW,3708,E MAIN ST & HEATHERWOOD DR,,39.954893,-82.854888,,,,,,0
MAIFOUW,3709,E MAIN ST & FOUNTAIN LN,,39.955059,-82.860061,,,,,,0
CLECOMN,3710,CLEVELAND AVE & COMMUNITY PARK DR,,40.100943,-82.949676,,,,,,0
CLECOMS,3711,CLEVELAND AVE & COMMUNITY PARK DR,,40.099736,-82.950095,,,,,,0
HAMMELN,3712,S HAMILTON RD & MELROY AVE,,39.949043,-82.877405,,,,,,0
OAKMAIE,3714,OAKLAND PARK AVE & MAIZE RD,,40.032487,-82.989801,,,,,,0
REFOLDE,3715,REFUGEE RD & OLD COURTRIGHT RD,,39.91615,-82.892875,,,,,,0
KARSHAS,3716,KARL RD & SHANLEY DR,,40.054891,-82.976477,,,,,,0
HAR187S,3717,1871 HARRISBURG PIKE,,39.919815,-83.062458,,,,,,0
HAR144N,3718,1440 HARRISBURG PIKE,,39.928563,-83.053838,,,,,,0
HAR142S,3719,1421 HARRISBURG PIKE,,39.929096,-83.053188,,,,,,0
OAKHAME,3720,OAKLAND PARK AVE & HAMILTON AVE,,40.031904,-82.977741,,,,,,0
OAKONTE,3721,OAKLAND PARK AVE & ONTARIO ST,,40.031784,-82.975206,,,,,,0
OAKNORE,3722,OAKLAND PARK AVE & NORWOOD ST,,40.031629,-82.972153,,,,,,0
OAKOAKE,3724,OAKLAND PARK AVE & OAKLAWN ST,,40.031446,-82.968592,,,,,,0
SAIBUCS,3727,SAINT CLAIR AVE & BUCKINGHAM ST,,39.972664,-82.98082,,,,,,0
SAI4THN,3730,SAINT CLAIR AVE & GIBBARD AVE,,39.984378,-82.979804,,,,,,0
5THCLEW,3733,E 5TH AVE & CLEVELAND AVE,0 E 5TH AVE & CLEVELAND AVE,39.986498,-82.988089,,,,,,0
5THFIEW,3735,E 5TH AVE & FIELDS AVE,,39.986606,-82.991819,,,,,,0
5TH6THW,3736,E 5TH AVE & N 6TH ST,,39.986829,-82.99677,,,,,,0
CHANOEW,3740,CHATTERTON RD & NOE BIXBY RD,,39.915676,-82.861799,,,,,,0
5THHIGHE,3746,W 5TH AVE & N HIGH ST,,39.987058,-83.005751,,,,,,0
5THGRAE,3749,E 5TH AVE & N GRANT AVE,,39.986645,-82.996043,,,,,,0
5THCLEE,3752,E 5TH AVE & CLEVELAND AVE,,39.986308,-82.988019,,,,,,0
SAI2NDS,3758,SAINT CLAIR AVE & E 2ND AVE,,39.981545,-82.980153,,,,,,0
SAIOLDS,3759,SAINT CLAIR AVE & LEONARD AVE,,39.97495,-82.98066,,,,,,0
NORNORTN,3781,NORTHWEST BLVD & NORTHAM RD,,40.011656,-83.057793,,,,,,0
NORKINGS,3797,NORTHWEST BLVD & KING AVE,,39.991189,-83.04078,,,,,,0
KINDELE,3803,KING AVE & DELASHMUT AVE,,39.990972,-83.030377,,,,,,0
KINOLEE,3804,KING AVE & OLENTANGY RIVER RD,,39.990859,-83.027095,,,,,,0
DIEWENS,3806,DIERKER RD & WENDYS DR,,40.058184,-83.075338,,,,,,0
KENMANS,3808,KENNY RD & MANSION WAY,,40.026542,-83.045728,,,,,,0
HARREDS,3811,HARRISBURG PIKE & RED ROCK BLVD,,39.913777,-83.066949,,,,,,0
12THIGW,3812,W 12TH AVE & N HIGH ST,,39.99694,-83.008556,,,,,,0
HAMREFN,3816,S HAMILTON RD & REFUGEE RD,,39.91601,-82.880457,,,,,,0
KINOLEW,3818,KING AVE & OLENTANGY RIVER RD,,39.990958,-83.0266,,,,,,0
KINOPPW1,3819,KING AVE & DELASHMUT AVE,,39.991084,-83.030074,,,,,,0
TRAWILW,3823,TRABUE RD & N WILSON RD,,39.987378,-83.108139,,,,,,0
NOREXIW,3825,W NORTH BROADWAY & RIVERSIDE EXIT,,40.029548,-83.035654,,,,,,0
NORCHAN,3841,NORTH STAR RD & CHAMBERS RD,,39.994284,-83.048668,,,,,,0
MAILAMW,3850,E MAIN ST & LAMBY LN,,39.955992,-82.892222,,,,,,0
BRYRHOE,3852,BRYDEN RD & RHOADS AVE,,39.959986,-82.948785,,,,,,0
HIGFITN,3856,N HIGH ST & FITZ HENRY BLVD,,40.066354,-83.019176,,,,,,0
LIVBERE,3866,E LIVINGSTON AVE & BERKLEY RD,E LIVINGSTON AVE & BERKELEY RD,39.948972,-82.956648,,,,,,0
PARHILS,3872,PARSONS AVE & HILOCK AVE,,39.897197,-82.986573,,,,,,0
HAMMOUS,3904,S HAMILTON RD & E MOUND ST,,39.951521,-82.877418,,,,,,0
HAMLIVS,3906,S HAMILTON RD & E LIVINGSTON AVE,0 HAMILTON RD & ARAGON AVE,39.943776,-82.878091,,,,,,0
HAMGROS,3907,S HAMILTON RD & GROVES RD,,39.929866,-82.879442,,,,,,0
HAMKIMS,3908,S HAMILTON RD & KIMBERLY PKWY,,39.926134,-82.87977,,,,,,0
HAMMACS,3909,S HAMILTON RD & MACSWAY AVE,,39.923239,-82.880064,,,,,,0
MACHAMW,3930,MACSWAY AVE & S HAMILTON RD,,39.923629,-82.880592,,,,,,0
HAMKINN,3931,S HAMILTON RD & KINGSLAND AVE,,39.92615,-82.879507,,,,,,0
HAMGRON,3932,S HAMILTON RD & GROVES RD,,39.93055,-82.879057,,,,,,0
HAMDUNN,3933,S HAMILTON RD & DUNDEE AVE,,39.941238,-82.878091,,,,,,0
HAMMAIN,3936,S HAMILTON RD & E MAIN ST,,39.95523,-82.876771,,,,,,0
HAMWRIN,3937,S HAMILTON RD & WRIGHT AVE,,39.957703,-82.876495,,,,,,0
HAMLANN,3938,S HAMILTON RD & LANGLEY AVE,,39.960012,-82.876283,,,,,,0
INNDERW,3940,INNIS RD & DERBYSHIRE DR,,40.037311,-82.958748,,,,,,0
PERAGLS,3941,PERDUE AVE & AGLER RD,,40.026681,-82.951917,,,,,,0
REFNOEE,3942,REFUGEE RD & NOE BIXBY RD,,39.915145,-82.863978,,,,,,0
HIG18TS,3957,N HIGH ST & W 18TH AVE,,40.002891,-83.008715,,,,,,0
MORSANE,3959,MORSE RD & SANDY LANE RD,,40.061264,-82.992829,,,,,,0
MORMAIE,3960,MORSE RD & MAIZE RD,,40.061006,-82.986753,,,,,,0
MORALME,3961,MORSE RD & ALMONT DR,,40.06077,-82.983053,,,,,,0
KARMORN,3962,KARL RD & MORSE RD,,40.061252,-82.977198,,,,,,0
KARREDN,3964,KARL RD & RED ROBIN RD,,40.064983,-82.976924,,,,,,0
KARNORMN,3965,KARL RD & NORMA RD,,40.068175,-82.976663,,,,,,0
KARPENN,3966,KARL RD & PENWORTH DR,,40.071638,-82.976386,,,,,,0
KARSANN,3967,KARL RD & SANDALWOOD PL,,40.077368,-82.975909,,,,,,0
KAR161N,3969,KARL RD & STATE ROUTE 161,KARL RD & E DUBLIN GRANVILLE RD,40.087992,-82.975151,,,,,,0
KAR602N,3970,6024 KARL RD,,40.090253,-82.975393,,,,,,0
KARALPN,3971,KARL RD & ALPINE DR,,40.092959,-82.97545,,,,,,0
KARCRAN,3973,KARL RD & CRANWOOD DR,,40.099415,-82.975069,,,,,,0
KARBARN,3976,KARL RD & BARNES DR E,,40.103565,-82.974602,,,,,,0
KARBARS,3998,KARL RD & BARNES DR E,,40.103286,-82.974764,,,,,,0
KARCRAS,4000,KARL RD & CRANWOOD DR,,40.098812,-82.975523,,,,,,0
KAR634S,4001,6347 KARL RD,,40.096755,-82.975999,,,,,,0
KARALPS,4002,KARL RD & ALPINE DR,,40.092918,-82.975567,,,,,,0
KAR161S,4003,KARL RD & STATE ROUTE 161,KARL RD & E DUBLIN GRANVILLE RD,40.087858,-82.975345,,,,,,0
KAR161S1,4004,KARL RD & STATE ROUTE 161,,40.085891,-82.975508,,,,,,0
KARHEMS,4005,KARL RD & HEMPWOOD DR,,40.084468,-82.97559,,,,,,0
KARSANS,4007,KARL RD & SANDALWOOD PL,,40.077272,-82.976122,,,,,,0
KARNORMS,4010,KARL RD & NORMA RD,,40.068477,-82.976852,,,,,,0
KARACRS,4011,KARL RD & RED ROBIN RD,,40.064987,-82.9771,,,,,,0
KARPATS,4012,KARL RD & PATIO AVE,,40.061535,-82.977407,,,,,,0
MORALMW,4013,MORSE RD & ALMONT DR,,40.061059,-82.983245,,,,,,0
MORMAIW,4014,MORSE RD & MAIZE RD,,40.061318,-82.987728,,,,,,0
MORKINW,4015,MORSE RD & KINGSHILL DR,,40.061427,-82.990304,,,,,,0
LIVBRIW,4025,E LIVINGSTON AVE & BRICE RD,,39.942198,-82.830486,,,,,,0
GRORIDS,4049,GROVE CITY PARK AND RIDE,GROVE CITY PARK & RIDE PATH & GENESSEE AVE,39.878393,-83.063987,,,,,,0
BRONORE,4050,W BROAD ST & NORTON RD,,39.95164,-83.138955,,,,,,0
SULCOUE,4059,SULLIVANT AVE & COUNTRYBROOK DR E,,39.938925,-83.115931,,,,,,0
LIVLATE,4063,E LIVINGSTON AVE & LATTIMER DR,,39.944096,-82.867075,,,,,,0
5THSAIE,4065,E 5TH AVE & SAINT CLAIR AVE,,39.985945,-82.978942,,,,,,0
5TH20TE,4066,E 5TH AVE & N 20TH ST,,39.985641,-82.971709,,,,,,0
5TH23RE,4067,E 5TH AVE & N 23RD ST,,39.985503,-82.967799,,,,,,0
JOY17TN,4070,JOYCE AVE & E 17TH AVE,,40.000424,-82.965248,,,,,,0
JOY177N,4071,1770 JOYCE AVE,,40.003468,-82.964313,,,,,,0
JOY23RN,4072,JOYCE AVE & E 23RD AVE,,40.005507,-82.963679,,,,,,0
JOY26TN,4073,JOYCE AVE & E 26TH AVE,,40.007935,-82.962927,,,,,,0
JOYBLAN,4074,JOYCE AVE & E BLAKE AVE,,40.010434,-82.962158,,,,,,0
JOY178S,4077,1782 JOYCE AVE,,40.003756,-82.964365,,,,,,0
JOYWINS,4078,JOYCE AVE & WINDSOR AVE,,39.995893,-82.966022,,,,,,0
5THJOYW,4080,E 5TH AVE & JOYCE AVE,,39.98566,-82.967545,,,,,,0
5TH20TW,4081,E 5TH AVE & N 20TH ST,,39.985859,-82.972567,,,,,,0
HIGRICN,4085,S HIGH ST & E RICH ST,,39.957306,-82.999592,,,,,,0
HIGSTANN,4087,S HIGH ST & E STATE ST,,39.959828,-83.000011,,,,,,0
HIGNATN,4092,N HIGH ST & E NATIONWIDE BLVD,,39.968247,-83.001678,,,,,,0
HIGOHIN,4094,N HIGH ST & OHIO CENTER WAY,,39.969862,-83.002009,,,,,,0
HIGSPRUN,4095,N HIGH ST & SPRUCE ST,,39.972739,-83.002575,,,,,,0
HIGSWANS,4096,N HIGH ST & SWAN ST,N HIGH ST & W SWAN ST,39.973091,-83.002846,,,,,,0
LIVQUAE,4097,E LIVINGSTON AVE & QUARRY RIDGE DR,,39.942981,-82.841329,,,,,,0
HIGNATS,4100,N HIGH ST & W NATIONWIDE BLVD,N HIGH ST & @ W NATIONWIDE BLVD,39.968203,-83.001929,,,,,,0
HIGLONS,4101,N HIGH ST & W LONG ST,N HIGH ST & E LONG ST,39.965149,-83.001318,,,,,,0
MAIMAIW,4104,E MAIN ST & MAIN 270 CENTER,,39.954861,-82.835095,,,,,,0
HIGTOWS,4106,S HIGH ST & W TOWN ST,,39.958087,-82.999949,,,,,,0
HIGMOUS,4109,S HIGH ST & W MOUND ST,,39.954145,-82.999181,,,,,,0
LIVSARW,4111,E LIVINGSTON AVE & SARANAC DR,,39.942471,-82.835748,,,,,,0
3RDGAYS,4113,N 3RD ST & E GAY ST,,39.964264,-82.998422,,,,,,0
3RDBROS1,4114,S 3RD ST & E BROAD ST,,39.962074,-82.997987,,,,,,0
3RDTOWS,4116,S 3RD ST & E TOWN ST,,39.958666,-82.997331,,,,,,0
3RDMAIS,4118,S 3RD ST & E MAIN ST,,39.955832,-82.996791,,,,,,0
FROGAYN,4122,N FRONT ST & W GAY ST,N FRONT ST & W ELM ST,39.963815,-83.002651,,,,,,0
MCK1600W,4124,MCKINLEY ADMIN OFFICE,1600 MCKINLEY ADMIN OFFICE,39.964561,-83.044621,,,,,,0
MCKPARK,4127,MCKINLEY PARK,1453 MCKINLEY AVE,39.963678,-83.040589,,,,,,0
MCKCENE,4128,MCKINLEY AVE & N CENTRAL AVE,,39.963595,-83.038726,,,,,,0
COUCLAS,4129,COURTRIGHT RD & CLARKSTON AVE,,39.92244,-82.898386,,,,,,0
COUCLAN,4130,COURTRIGHT RD & CLARKSTON AVE,,39.923097,-82.898724,,,,,,0
MCKYALE,4131,MCKINLEY AVE & N YALE AVE,,39.963292,-83.032797,,,,,,0
MCKCYPE,4132,MCKINLEY AVE & N CYPRESS AVE,,39.9631,-83.029047,,,,,,0
BROHIGE1,4134,E BROAD ST & S HIGH ST,,39.962196,-83.000204,,,,,,0
BRO3RDE,4135,E BROAD ST & S 3RD ST,,39.962445,-82.997478,,,,,,0
BRO4THE,4136,E BROAD ST & S 4TH ST,,39.962566,-82.996449,,,,,,0
BRO5THE,4137,E BROAD ST & S 5TH ST,,39.962807,-82.994488,,,,,,0
BROGRAE,4138,E BROAD ST & S GRANT AVE,,39.963161,-82.991381,,,,,,0
BROWASAE,4140,E BROAD ST & S WASHINGTON AVE,E BROAD ST & N WASHINGTON AVE,39.963674,-82.987427,,,,,,0
BROJEFE,4141,E BROAD ST & JEFFERSON AVE,,39.963905,-82.984853,,,,,,0
BROPARSE,4142,E BROAD ST & PARSONS AVE,,39.964355,-82.98101,,,,,,0
MCK851E,4145,MCKINLEY AVE & N HARTFORD AVE,,39.962846,-83.024467,,,,,,0
BROGRAW,4146,E BROAD ST & N GRANT AVE,,39.963375,-82.991512,,,,,,0
BRO5THW,4147,E BROAD ST & N 5TH ST,,39.963081,-82.994024,,,,,,0
BRO3RDW,4148,E BROAD ST & N 3RD ST,,39.962681,-82.997559,,,,,,0
BROHIGHW,4149,E BROAD ST & N HIGH ST,,39.962447,-82.999578,,,,,,0
BROMARW,4150,W BROAD ST & MARCONI BLVD,,39.962029,-83.003554,,,,,,0
BROSKIW,4154,W BROAD ST & N SKIDMORE ST,,39.96035,-83.016599,,,,,,0
MCK856W,4155,856 MCKINLEY AVE,,39.962985,-83.02416,,,,,,0
LONHIGE,4157,W LONG ST & N HIGH ST,0 W LONG ST & N HIGH ST,39.964821,-83.001482,,,,,,0
LON4THE,4158,E LONG ST & N 4TH ST,,39.965299,-82.996981,,,,,,0
LONNORE,4159,E LONG ST & NORMANDY AVE,,39.965756,-82.993526,,,,,,0
LONCLEE,4160,E LONG ST & CLEVELAND AVE,,39.966076,-82.990768,,,,,,0
LONWASE,4161,E LONG ST & N WASHINGTON AVE,,39.966475,-82.987289,,,,,,0
LONJEFE,4162,E LONG ST & JEFFERSON AVE,,39.966792,-82.984498,,,,,,0
MCKCYPW,4163,MCKINLEY AVE & N CYPRESS AVE,,39.96322,-83.029077,,,,,,0
5THBASE,4164,E 5TH AVE & BASSETT AVE,,39.985288,-82.962882,,,,,,0
SNOLAUW,4166,SNOUFFER RD & LAUREN PL,,40.103503,-83.048989,,,,,,0
SPRMOUW,4167,E SPRING ST & MOUNT VERNON AVE,,39.968101,-82.987697,,,,,,0
SPRCLEW,4168,E SPRING ST & CLEVELAND AVE,,39.967561,-82.990364,,,,,,0
SPRGRAW,4169,E SPRING ST & N GRANT AVE,,39.967221,-82.99225,,,,,,0
SPRNEIW,4170,E SPRING ST & NEILSTON ST,,39.966947,-82.994666,,,,,,0
5THPKWW,4174,E 5TH AVE & PARKWOOD AVE,,39.985265,-82.958336,,,,,,0
SPRMARW,4176,W SPRING ST & MARCONI BLVD,,39.965979,-83.004621,,,,,,0
KIMKIME,4178,KIMBERLY PKWY N & KIMBERLY PKWY E,,39.926018,-82.883658,,,,,,0
HILCABS,4179,HILLIARD ROME RD & CABOT COVE DR,,39.99825,-83.153188,,,,,,0
HILCOVN,4180,HILLIARD ROME RD & CABOT COVE DR,,39.99864,-83.152954,,,,,,0
NELOPPN1,4182,NELSON RD & MILLBROOK WAY,,39.974044,-82.947348,,,,,,0
5THBASW,4186,E 5TH AVE & BASSETT AVE,,39.985492,-82.963363,,,,,,0
MCKYALW,4189,MCKINLEY AVE & N YALE AVE,,39.963419,-83.032905,,,,,,0
MCKCENW,4190,MCKINLEY AVE & N CENTRAL AVE,,39.963739,-83.038928,,,,,,0
MCKTRAW,4193,MCKINLEY AVE & MCK TRANSPORTATION,0 MCKINLEY GARAGE PATH & MCKINLEY AVE,39.964411,-83.04135,,,,,,0
HIGERIS,4203,N HIGH ST & ERIE RD,,40.038065,-83.017678,,,,,,0
OLE2825N,4204,2825 OLENTANGY RIVER RD,,40.018469,-83.023719,,,,,,0
HIGWORN,4207,N HIGH ST & WORTHINGTON GALENA RD,,40.096341,-83.017476,,,,,,0
RENHILW,4214,RENNER RD & HILLIARD ROME RD,,39.981322,-83.150221,,,,,,0
TRARASE,4217,TRABUE RD & RASPBERRY RUN DR,,39.986597,-83.109939,,,,,,0
NEI8THS,4227,NEIL AVE & W 8TH AVE,,39.992302,-83.01415,,,,,,0
MOUHIGW3,4228,W MOUND ST & S HIGH ST,,39.954822,-82.999541,,,,,,0
KIMBERE,4234,KIMBERLY PKWY N & PETZINGER RD,0 KIMBERLY PKWY N & LAUREL LN,39.924407,-82.890386,,,,,,0
TAYWESBN,4235,TAYLOR STATION RD & WESTBOURNE AVE,,39.98361,-82.843115,,,,,,0
BROCONEW,4239,W BROAD ST & BROADLAWN AVE,,39.953914,-83.098057,,,,,,0
BROVIOW,4241,W BROAD ST & VIOTIS DR,,39.953692,-83.102282,,,,,,0
BRO4158W,4242,4158 W BROAD ST,4158 W BROAD ST & NATIONWIDE BLVD,39.953219,-83.112013,,,,,,0
