stop_lat,wheelchair_boarding,stop_code,stop_lon,stop_id,stop_url,parent_station,stop_desc,stop_name,location_type,zone_id
39.945983,0,5436,-83.034566,MOUHARE,,,,W MOUND ST & HARRISBURG PIKE,0,
39.987295,0,1420,-82.999474,4TH5THN,,,,N 4TH ST & E 5TH AVE,0,
39.927843,0,7506,-82.827706,635TUSS,,,CONSUMER SQUARE SVC RD,6350 TUSSING RD,0,
39.943159,0,2767,-82.958744,WHILILW,,,,E WHITTIER ST & LILLEY AVE,0,
40.101097,0,1246,-83.028451,RIELAMS,,,,RIEBER ST & LAMBOURNE AVE,0,
39.987521,0,1708,-83.013213,NEI5THS,,,,NEIL AVE & W 5TH AVE,0,
39.971639,0,1629,-82.975812,MOU18TE,,,,MOUNT VERNON AVE & N 18TH ST,0,
40.02301,0,3690,-82.969351,WEBBREW,,,,E WEBER RD & BREMEN ST,0,
39.892144,0,2235,-82.996298,HIGWILN1,,,,S HIGH ST & WILLIAMS RD,0,
40.110056,0,3099,-82.925583,STASCHN,,,,S STATE ST & E SCHROCK RD,0,
40.045865,0,4782,-82.977153,KARCOOS1,,,,KARL RD & E COOKE RD,0,
39.95801,0,2353,-82.974384,MAICARW,,,,E MAIN ST & CARPENTER ST,0,
39.98716,0,1695,-83.012959,NEI5THN,,,,NEIL AVE & W 5TH AVE,0,
39.962878,0,4145,-83.024381,MCK851E,,,,851 MCKINLEY AVE,0,
40.014297,0,3604,-82.98315,HUDGRAE,,,,E HUDSON ST & GRASMERE AVE,0,
39.946334,0,3575,-82.971801,OHICOLS,,,,S OHIO AVE & E COLUMBUS ST,0,
40.022901,0,3688,-82.969686,WEBBREE,,,,E WEBER RD & BREMEN ST,0,
39.963119,0,4132,-83.028993,MCKCYPE,,,,MCKINLEY AVE & N CYPRESS AVE,0,
40.003566,0,1192,-83.008642,HIGWOON,,,,N HIGH ST & W WOODRUFF AVE,0,
40.123365,0,5574,-83.068609,SMOSWAN,,,,SMOKY ROW RD & SWANSFORD DR,0,
39.969463,0,2486,-82.93624,BRODREE,,,,E BROAD ST & S DREXEL AVE,0,
39.939385,0,2397,-83.08004,EAKSALW,,,,EAKIN RD & SALISBURY RD,0,
39.979828,0,2942,-83.034742,1STOXLE,,,,W 1ST AVE & OXLEY RD,0,
39.963195,0,4163,-83.028714,MCKCYPW,,,,MCKINLEY AVE & N CYPRESS AVE,0,
40.123212,0,5573,-83.068674,SMOSWAS,,,,SMOKY ROW RD & SWANSFORD DR,0,
40.023966,0,6085,-82.928458,CASCARN,,,,N CASSADY AVE & CARALEE DR,0,
39.979931,0,2912,-83.034525,1STOXLW,,,,W 1ST AVE & OXLEY RD,0,
39.988167,0,6374,-82.896298,DSWWESW,,,DSW SERVICE RD,DSW WAREHOUSE WEST ENTRANCE,0,
39.963673,0,4773,-82.914306,JAMDALS,,,,S JAMES RD & DALE AVE,0,
40.110421,0,3119,-82.92597,STASCHS,,,,S STATE ST & E SCHROCK RD,0,
40.062073,0,5731,-82.952929,CLECLYS,,,,CLEVELAND AVE & CLYBOURNE RD,0,
39.943033,0,2764,-82.957888,WHIBERE,,,,E WHITTIER ST & BERKELEY RD,0,
40.072682,0,6772,-82.951851,CLEWALN,,,,CLEVELAND AVE & WALLCREST BLVD,0,
39.919363,0,3002,-83.062659,HAR196N,,,,1896 HARRISBURG PIKE,0,
40.014559,0,3652,-83.010991,HUDHIGW,,,,E HUDSON ST & N HIGH ST,0,
39.932249,0,3536,-82.941459,ALUFRAN,,,ALUM CREEK DR & INTERGITY DR S,ALUM CREEK DR & INTEGRITY DR S,0,
40.06494,0,6577,-83.070619,MCKCRON,,,,MCKITRICK BLVD & CROWN PARK CT,0,
39.91941,0,2218,-82.995505,HIG210S,,,,2101 S HIGH ST,0,
39.964159,0,4768,-82.914042,JAMDALN,,,,S JAMES RD & DALE AVE,0,
39.957207,0,2283,-82.941985,MAIPARE,,,,E MAIN ST & S PARKVIEW AVE,0,
40.026442,0,1871,-82.926405,CHEMARE,,,,CHELFORD DR & MARVIEW RD,0,
40.042689,0,4678,-82.97738,KARELMS,,,,KARL RD & ELMORE AVE,0,
39.8891,0,6186,-83.000805,GREWALS,,,,GREAT SOUTHERN WAL-MART,0,
40.077807,0,5710,-83.047575,LINROCS,,,,LINWORTH RD & ROCKY RILL RD,0,
39.938296,0,2292,-82.829369,EASOFFE,,,,EASTGREEN BLVD & OFFICEVIEW PL,0,
39.977599,0,5701,-82.913471,RUHJAME,,,,RUHL AVE & N JAMES RD,0,
40.005664,0,1108,-82.972204,CLE23RN,,,,CLEVELAND AVE & E 23RD AVE,0,
40.105417,0,7331,-82.818948,WES740W,,,7400 WEST CAMPUS RD,7400 WEST CAMPUS ROAD,0,
40.022423,0,4380,-82.890392,STYDUNS,,,,N STYGLER RD & DUNCHURCH RD,0,
40.080646,0,5763,-83.1415,EMEGLES,,,,EMERALD PKWY & GLENDON CT,0,
40.077798,0,3499,-83.047447,LINROCN,,,,LINWORTH RD & ROCKY RILL RD,0,
39.938459,0,5142,-82.829,EASOFFW,,,,EASTGREEN BLVD & OFFICEVIEW PL,0,
39.98063,0,4393,-82.872839,HAMPOTS,,,,N HAMILTON RD & POTH RD,0,
39.96055,0,2069,-82.978672,BRYMONE,,,,BRYDEN RD & S MONROE AVE,0,
39.844321,0,3281,-82.811131,GROWESW,,,,GROVEPORT RD & WEST ST,0,
40.038838,0,1789,-82.989135,MAIZEBS,,,,MAIZE RD & ZEBULON AVE,0,
40.042256,0,4671,-82.977285,KARELMN,,,,KARL RD & ELMORE AVE,0,
39.9604,0,2055,-82.986756,TOWWASW,,,,E TOWN ST & S WASHINGTON AVE,0,
39.960286,0,2066,-82.986557,TOWWASE,,,,E TOWN ST & S WASHINGTON AVE,0,
40.13763,0,7484,-82.991595,SAN832N,,,,8322 SANCUS BLVD,0,
39.994369,0,1719,-82.999378,11T4THE,,,,E 11TH AVE & N 4TH ST,0,
39.972024,0,1678,-82.974453,MOUMIAW,,,,MOUNT VERNON AVE & MIAMI AVE,0,
40.125772,0,6003,-82.94396,WESP&RW,,,WESTERVILLE PARK & RIDE,WESTERVILLE PARK AND RIDE,0,
40.092373,0,3121,-82.925607,WESPARS,,,,WESTERVILLE RD & PARIS CT,0,
40.096481,0,3992,-82.981872,AMBOPPN,,,,AMBLESIDE DR & KILDARE SQ S,0,
39.912581,0,3331,-82.862809,HATNOEW,,,,HATFIELD DR & NOE BIXBY RD,0,
40.036224,0,1279,-83.017185,HIGNORMS,,,,N HIGH ST & NORTHMOOR PL,0,
40.018712,0,6778,-83.024156,OLE2825S,,,,2825 OLENTANGY RIVER RD,0,
40.072994,0,6096,-83.138915,BRIHIRN,,,BRITTON PARKWAY & HIRTH RD,BRITTON PKWY & HIRTH RD,0,
39.969934,0,2536,-82.93334,BROCASAW,,,,E BROAD ST & N CASSADY AVE,0,
40.07285,0,5740,-83.138995,BRIHIRS,,,BRITTON PARKWAY & HIRTH RD,BRITTON PKWY & HIRTH RD,0,
39.912503,0,3335,-82.862876,HATNOEE,,,,HATFIELD DR & NOE BIXBY RD,0,
40.042096,0,1277,-83.018767,HIGCHAS,,,,N HIGH ST & CHATHAM RD,0,
39.954979,0,2657,-83.071311,BROWARE,,,,W BROAD ST & S WARREN AVE,0,
39.969901,0,2487,-82.932366,BROCASAE,,,,E BROAD ST & S CASSADY AVE,0,
39.897942,0,6915,-82.929355,ALUNEWWN,,,,ALUM CREEK DR & NEW WORLD DR,0,
40.031792,0,3721,-82.97521,OAKONTE,,,,OAKLAND PARK AVE & ONTARIO ST,0,
40.103705,0,4395,-83.05774,SNOBRIW,,,,SNOUFFER RD & BRIDE WATER BLVD,0,
39.966473,0,2480,-82.962886,BROLATE,,,,E BROAD ST & LATTA AVE,0,
39.944588,0,2780,-82.991193,WHI5THW,,,,E WHITTIER ST & S 5TH ST,0,
40.01649,0,4688,-82.950503,MYRWOOW,,,,MYRTLE AVE & WOODLAND AVE,0,
40.059809,0,6014,-82.987309,MAIMORN1,,,4532 MAIZE RD & MORSE RD,MAIZE RD & MORSE RD,0,
40.064932,0,4011,-82.977113,KARACRS,,,,KARL RD & RED ROBIN RD,0,
40.019526,0,1369,-83.075886,ZOLASBE,,,,ZOLLINGER RD & ASBURY DR,0,
39.897843,0,6916,-82.929579,ALUNEWWS,,,,ALUM CREEK DR & NEW WORLD DR,0,
40.016425,0,4689,-82.950475,MYRWOOE,,,,MYRTLE AVE & WOODLAND AVE,0,
39.993947,0,1844,-82.949665,BRE1257N,,,,1257 BRENTNELL AVE,0,
39.891039,0,4987,-83.080435,RICSOUS,,,,RICHARD AVE & SOUTHWEST BLVD,0,
40.021473,0,6030,-82.928606,CASAGLN,,,,N CASSADY AVE & AGLER RD,0,
40.029862,0,5502,-83.11648,FIS365N,,,,3650 FISHINGER BLVD,0,
40.063539,0,5688,-83.049486,BET115W,,,1154 BETHEL RD & DEVONTRY LN,1154 BETHEL RD,0,
39.960285,0,1251,-83.000381,HIGSTAS,,,,S HIGH ST & W STATE ST,0,
40.105734,0,5406,-82.932437,BROHEAE,,,,BROOKSEDGE BLVD & HEATHERDOWN DR,0,
40.063386,0,5687,-83.049912,BET115E,,,1151 BETHEL RD & DEVONTRY LN,1151 BETHEL RD,0,
39.953661,0,4245,-83.123647,OLDBRON,,,,OLD VILLAGE RD & W BROAD ST,0,
39.903358,0,3926,-82.87576,HARGRAW,,,,HARBOR BLVD & GRAYSTONE DR,0,
40.1094,0,5759,-82.936331,PAR647S,,,,6471 PARK MEADOW RD,0,
40.031447,0,6072,-83.010737,NOR169E,,,169 E NORTH BROADWAY ST,169 E NORTH BROADWAY,0,
40.02031,0,3172,-82.928792,CASAGLS,,,,N CASSADY AVE & AGLER RD,0,
40.094008,0,7342,-82.819142,WAL732W,,,,7323 WALTON PKWY,0,
39.960287,0,2075,-82.962925,BRYOPPE,,,,BRYDEN RD & KENDALL PL,0,
39.973829,0,1634,-82.963424,MOUBURE,,,,MOUNT VERNON AVE & BURT ST,0,
39.95736,0,2281,-82.948969,MAIRHOE,,,,E MAIN ST & RHOADS AVE,0,
39.971446,0,2531,-82.919243,BROHARDW,,,,E BROAD ST & N HARDING RD,0,
39.927122,0,5462,-83.116773,GEOPARN,,,GEORGESVILLE RD & PARKWICK DR,GEORGESVILLE & PARKWICK DR,0,
39.984342,0,5453,-82.979941,SAIGIBS,,,ST CLAIR AVE & GIBBARD AVE,SAINT CLAIR AVE & GIBBARD AVE,0,
39.957502,0,2343,-82.94909,MAIRHOW,,,,E MAIN ST & RHOADS AVE,0,
39.971319,0,2492,-82.919001,BROHARDE,,,,E BROAD ST & S HARDING RD,0,
39.940446,0,2430,-83.07795,MOUBINE,,,,W MOUND ST & BINNS BLVD,0,
40.024294,0,2895,-83.054801,FISPEMW,,,,FISHINGER RD & PEMBERTON DR,0,
39.982045,0,2918,-83.04905,1STOAKW,,,,W 1ST AVE & OAKLAND AVE,0,
40.129024,0,4403,-83.069842,SMOSTON,,,,SMOKY ROW RD & STOWBRIDGE RD,0,
40.06335,0,1222,-83.019332,HIGLELN,,,,N HIGH ST & LELAND AVE,0,
39.993112,0,5856,-83.082883,MCK3235N,,,,3235 MCKINLEY AVE,0,
40.103119,0,1336,-83.017269,HIGHALS,,,,N HIGH ST & HALLIGAN AVE,0,
39.949822,0,2009,-82.971857,LIVOHIW,,,,E LIVINGSTON AVE & S OHIO AVE,0,
40.027105,0,6487,-82.956527,AGLLINVE,,,,AGLER RD & LINVIEW AVE,0,
40.140589,0,6928,-82.946923,CLEWESTN,,,N CLEVELAND AVE & WESTAR BLVD,CLEVELAND AVE & WESTAR BLVD,0,
40.014704,0,3645,-82.989737,HUDOSCW,,,,E HUDSON ST & OSCEOLA AVE,0,
40.141461,0,6929,-82.947102,CLEWESTS,,,N CLEVELAND AVE & WESTAR BLVD,CLEVELAND AVE & WESTAR BLVD,0,
40.09633,0,3078,-82.950307,CLEDEES,,,,CLEVELAND AVE & DEEWOOD DR,0,
40.090368,0,1583,-82.895497,VALTASW,,,,VALLEY QUAIL BLVD N & TASSEL CT,0,
39.981173,0,2913,-83.037587,1STVIRW,,,,W 1ST AVE & VIRGINIA AVE,0,
39.945467,0,2705,-83.063423,SULWAYW,,,,SULLIVANT AVE & S WAYNE AVE,0,
39.957123,0,4766,-82.91468,JAMMAIN,,,,S JAMES RD & E MAIN ST,0,
39.994197,0,4626,-82.995413,11TGRAE_merged_559579,,,,E 11TH AVE & N GRANT AVE,0,
39.956433,0,2666,-83.047616,BROENTE,,,,W BROAD ST & GLENWOOD PARK,0,
39.997804,0,4464,-82.930314,CASDEMS,,,,N CASSADY AVE & DEMONYE DR,0,
39.998003,0,5717,-82.93009,CASDEMN,,,,N CASSADY AVE & DEMONYE DR,0,
40.049255,0,7203,-82.976707,KARSTON,,,KARL RD & STONEGATE SQ W,KARL RD & STONEGATE SQUARE WEST,0,
39.956809,0,4775,-82.91488,JAMMAIS,,,,S JAMES RD & E MAIN ST,0,
40.109767,0,5402,-82.928078,SCH99BE,,,,99 W SCHROCK RD,0,
39.956296,0,4409,-83.050394,BROENTW,,,,W BROAD ST & RHODES PARK,0,
39.976434,0,2909,-83.029127,NORBURNW,,,,NORTHWEST BLVD & BURR AVE,0,
40.003421,0,4071,-82.96432,JOY177N,,,,1770 JOYCE AVE,0,
40.043228,0,3480,-83.050394,KENPARS,,,,KENNY RD & PARKLEIGH RD,0,
40.021188,0,3157,-82.923264,GATGATN,,,,GATEWOOD RD & GATEWOOD CT,0,
40.009756,0,2621,-82.929373,CASCUMN,,,,CASSADY AVE & CUMBERLAND WOODS DR,0,
39.977797,0,1172,-82.860237,BROCARW,,,,E BROAD ST & CARDINAL PARK DR,0,
39.968762,0,1625,-82.981551,MARHAME,,,,MARTIN LUTHER KING & HAMILTON AVE,0,
39.858526,0,3293,-82.908157,GROSALNW,,,,GROVEPORT RD & SALTZGABER RD,0,
40.018854,0,7382,-82.970093,GENBREE1,,,,GENESSEE AVE & BREMEN ST,0,
39.973168,0,1168,-82.901904,BROMAPE,,,,E BROAD ST & MAPLEWOOD AVE,0,
40.043286,0,3433,-83.050217,KENPARN,,,,KENNY RD & PARKLEIGH RD,0,
39.881958,0,6985,-83.089302,COLDUDLW,,,,COLUMBUS ST & DUDLEY AVE,0,
40.055057,0,6873,-82.918297,MORSETN,,,,MORSE CROSSING & SETON ST,0,
40.135729,0,4406,-83.071906,SMOSMOE,,,,SMOKY VIEW BLVD & SMOKY ROW RD,0,
39.99209,0,5357,-83.092675,HAGTRAS,,,,N HAGUE AVE & TRABUE RD,0,
40.008877,0,1818,-82.979448,HAMDUXS,,,,HAMILTON AVE & DUXBERRY AVE,0,
40.058766,0,3133,-82.953179,CLEMORS,,,,CLEVELAND AVE & MORSE RD,0,
40.063229,0,6896,-82.915636,STELSUNE,,,,STELZER RD & SUNBURY RD,0,
40.020704,0,5886,-82.919055,AGL344W,,,,AGLER RD & GREENLEE RD,0,
39.987054,0,3738,-83.002427,5THSUMW,,,,E 5TH AVE & SUMMIT ST,0,
39.961312,0,2680,-83.007202,BROWASBE,,,,W BROAD ST & WASHINGTON BLVD,0,
40.135824,0,7240,-83.07192,SMOSMOW,,,,SMOKY VIEW BLVD & SMOKY ROW RD,0,
39.958014,0,5166,-82.827845,BRIPORN,,,,BRICE RD & PORTSMOUTH DR,0,
40.063479,0,6897,-82.915494,STELSUNW,,,,STELZER RD & SUNBURY RD,0,
40.05916,0,3086,-82.952914,CLEMORN,,,,CLEVELAND AVE & MORSE RD,0,
40.020615,0,5885,-82.919016,AGL344E,,,,AGLER RD & GREENLEE RD,0,
39.98688,0,4895,-83.001732,5THSUME,,,,E 5TH AVE & SUMMIT ST,0,
40.009025,0,1729,-82.979308,HAMDUXN,,,,HAMILTON AVE & DUXBERRY AVE,0,
39.963715,0,4190,-83.038607,MCKCENW,,,,MCKINLEY AVE & N CENTRAL AVE,0,
39.958095,0,4106,-82.999953,HIGTOWS,,,,S HIGH ST & W TOWN ST,0,
39.935306,0,2155,-82.978521,FRE18TW,,,,FREBIS AVE & S 18TH ST,0,
40.037179,0,1127,-82.955294,INNUSPW,,,2200 INNIS RD,INNIS RD & US POSTAL SERVICE,0,
40.090523,0,5394,-83.123954,FRAMONN,,,,FRANTZ RD & MONTEREY DR,0,
39.917036,0,5705,-82.896862,COUREFN,,,,COURTRIGHT RD & REFUGEE RD,0,
40.005044,0,1589,-83.069108,ARLTRES,,,,ARLINGTON AVE & TREMONT RD,0,
40.11836,0,5137,-83.013361,CAMVANW,,,,E CAMPUS VIEW BLVD & VANTAGE DR,0,
39.963603,0,4128,-83.03873,MCKCENE,,,,MCKINLEY AVE & N CENTRAL AVE,0,
39.935206,0,2111,-82.978535,FRE18TE,,,,FREBIS AVE & S 18TH ST,0,
39.8677,0,6947,-82.935524,ALUCGROS,,,,ALUM CREEK DR & GROVEPORT RD,0,
39.960672,0,3569,-82.970697,OHIBRYS,,,,S OHIO AVE & BRYDEN RD,0,
40.005627,0,1430,-82.998235,4THLANN,,,,N 4TH ST & E LANE AVE,0,
40.035356,0,1132,-82.963557,CLEHUYS,,,,CLEVELAND AVE & HUY RD,0,
39.958235,0,2629,-83.034022,BROCHIW,,,,W BROAD ST & CHICAGO AVE,0,
39.976044,0,2509,-82.874382,BROHAMIE,,,,E BROAD ST & S HAMILTON RD,0,
39.92734,0,2119,-82.96508,LOCSMIS,,,,LOCKBOURNE RD & SMITH RD,0,
40.026454,0,4379,-82.890041,STYCHAS,,,,N STYGLER RD & CHAPELFIELD RD,0,
39.926318,0,6906,-82.936452,ALUWINS,,,,ALUM CREEK DR & WINSLOW DR,0,
39.986763,0,1302,-83.005527,HIG5THS,,,,N HIGH ST & W 5TH AVE,0,
39.939371,0,4842,-82.906627,ROSBARE,,,,ROSWELL DR & BARNETT RD,0,
39.89611,0,4651,-82.954518,ZENNORW,,,,ZENNER DR & NORWALK RD,0,
39.927354,0,2147,-82.964936,LOCSMIN,,,,LOCKBOURNE RD & SMITH RD,0,
39.964568,0,2549,-82.980904,BROHAMIW,,,E BROAD ST & HAMILTON AVE,E BROAD ST & HAMILTON PK,0,
39.981648,0,5447,-82.984244,2NDHOWNW,,,,E 2ND AVE & HOWARD ST,0,
40.11264,0,1684,-82.949147,CLECOPS,,,,S CLEVELAND AVE & COPELAND MILL RD,0,
40.034844,0,1124,-82.963432,CLEHUYN,,,,CLEVELAND AVE & HUY RD,0,
40.018498,0,1116,-82.964969,CLEGENN,,,,CLEVELAND AVE & GENESSEE AVE,0,
39.845317,0,6811,-82.822593,GROTHRUW,,,,GROVEPORT RD & THRUSH DR,0,
40.06278,0,6532,-83.056846,GODBETS,,,,GODOWN RD & BETHEL RD,0,
39.86903,0,7066,-82.826945,GENLEHS,,,,GENDER RD & LEHMAN RD,0,
39.848867,0,2001,-82.866038,GROLITSE,,,,GROVEPORT RD & LITHOPOLIS RD,0,
39.957406,0,2358,-82.989203,MAIGRANW,,,,E MAIN ST & S GRANT AVE,0,
40.091209,0,7551,-82.74213,906SMIN,,,,9065 SMITH'S MILL RD N,0,
40.098745,0,3981,-82.980766,AMBCRAS,,,,AMBLESIDE DR & CRANWOOD SQ S,0,
40.072082,0,6773,-82.952139,CLEWALS,,,,CLEVELAND AVE & WALLCREST BLVD,0,
40.01978,0,3627,-83.081146,ZOLDORE,,,,ZOLLINGER RD & S DORCHESTER RD,0,
39.845111,0,6810,-82.822086,GROTHRUE,,,,GROVEPORT RD & THRUSH DR,0,
40.100963,0,5266,-83.028231,LAMRIEW,,,,LAMBOURNE AVE & RIEBER ST,0,
40.028376,0,4372,-82.899356,LINEMPN,,,,LINCOLNSHIRE RD & EMPIRE DR N,0,
40.07161,0,3025,-82.962211,NORMINN,,,,NORTHTOWNE BLVD & MINERVA AVE,0,
39.957245,0,2266,-82.989172,MAIGRANE,,,,E MAIN ST & S GRANT AVE,0,
40.084816,0,7179,-83.092243,SAWCRAS,,,,SAWMILL RD & CRANSTON DR,0,
40.06434,0,2061,-83.056819,GODBETN,,,,GODOWN RD & BETHEL RD,0,
39.869155,0,7068,-82.82672,GENLEHN,,,,GENDER RD & LEHMAN RD,0,
39.957052,0,2335,-82.930138,MAIREMW,,,,E MAIN ST & S REMINGTON RD,0,
39.992018,0,7118,-83.026692,CHAMLENW,,,,CHAMBERS RD & LENNOX SVC RD,0,
40.085939,0,4004,-82.975489,KAR161S1,,,,KARL RD & STATE ROUTE 161,0,
40.095091,0,7108,-83.13317,METS565S,,,,565 METRO PL S,0,
40.083547,0,7372,-82.766404,SMI811E,,,8111 SMITH'S MILL RD N,8111 SMITHS MILL RD,0,
39.954861,0,4104,-82.835096,MAIMAIW,,,,E MAIN ST & MAIN 270 CENTER,0,
39.971253,0,3843,-82.94915,NELGREN,,,,N NELSON RD & GREENWAY SOUTH,0,
39.931049,0,2823,-82.983877,PARMARN1,,,,PARSONS AVE & E MARKISON AVE,0,
39.938034,0,6895,-83.112857,GEOOSULS,,,,GEORGESVILLE RD & SULLIVANT AVE,0,
39.933948,0,3587,-82.952251,FRETHEE,,,,FREBIS AVE & THELMA B KEE,0,
39.939739,0,2433,-83.071253,MOURACE,,,,W MOUND ST & RACINE AVE,0,
40.013914,0,3153,-82.929097,CASBAYN,,,,N CASSADY AVE & BAYLOR AVE,0,
40.013361,0,3174,-82.929237,CASBAYS,,,,N CASSADY AVE & BAYLOR AVE,0,
39.939676,0,2386,-83.05867,MOUHIGW2,,,,W MOUND ST & S HIGHLAND AVE,0,
39.992584,0,5860,-83.092508,TRAHAGE,,,,TRABUE RD & N HAGUE AVE,0,
39.93406,0,3539,-82.952012,FRETHEW,,,,FREBIS AVE & THELMA B KEE,0,
39.954932,0,1797,-82.99871,MOUHIGW1,,,,E MOUND ST & S HIGH ST,0,
39.99033,0,1510,-83.001899,SUM7THS,,,,SUMMIT ST & E 7TH AVE,0,
40.052635,0,7359,-82.864029,HAMSTOS,,,,N HAMILTON RD & STONERIDGE LN,0,
39.897761,0,2997,-83.080449,BROCENN,,,,BROADWAY & CENTRAL AVE,0,
39.949393,0,5090,-82.995352,3RDSYCN,,,,S 3RD ST & E SYCAMORE ST,0,
40.051899,0,1480,-83.000181,INDSCHS,,,,INDIANOLA AVE & SCHREYER PL,0,
39.955541,0,2315,-82.876401,MAIHAMW,,,,E MAIN ST & S HAMILTON RD,0,
39.93645,0,2210,-82.992602,4THHANS,,,,S 4TH ST & HANFORD ST,0,
39.943083,0,4549,-83.087518,SULSOUW,,,,SULLIVANT AVE & S SOUTHAMPTON AVE,0,
39.954963,0,3527,-82.81478,MAIHENE,,,,E MAIN ST & HENTZ DR,0,
39.957644,0,2668,-83.037744,BROCENE,,,,W BROAD ST & S CENTRAL AVE,0,
39.902039,0,4656,-82.961571,SOULOCN,,,,SOUTHFIELD DR & LOCKBERRY AVE,0,
39.936429,0,2252,-82.992494,4THHANN,,,,S 4TH ST & HANFORD ST,0,
39.949152,0,5085,-82.995501,3RDSYCS,,,,S 3RD ST & E SYCAMORE ST,0,
39.980548,0,4353,-82.872665,HAMPOTN,,,,N HAMILTON RD & POTH RD,0,
40.030116,0,7308,-83.155878,CEMLUXE,,,,CEMETERY RD & LUXAIR DR,0,
39.955398,0,2307,-82.877192,MAIHAME,,,,E MAIN ST & S HAMILTON RD,0,
39.955124,0,3210,-82.81465,MAIHENW,,,,E MAIN ST & HENTZ DR,0,
39.957711,0,2631,-83.038489,BROCENW,,,,W BROAD ST & N CENTRAL AVE,0,
39.930074,0,6835,-82.87773,GROHAME,,,,GROVES RD & HAMILTON RD,0,
39.953161,0,2745,-83.021841,SULSOUE,,,,SULLIVANT AVE & S SOUDER AVE,0,
39.977895,0,4511,-82.917664,RUHVIRW,,,,RUHL AVE & N VIRGINIA LEE RD,0,
40.009517,0,2885,-83.057918,NORWILSN,,,,NORTHWEST BLVD & WILSHIRE DR,0,
39.995402,0,7282,-82.998793,CHI4THW1,,,,CHITTENDEN AVE & N 4TH ST,0,
39.984723,0,1657,-82.917568,5THKRUW,,,,E 5TH AVE & KRUMM AVE,0,
40.068938,0,1265,-83.019253,HIG521S,,,,5211 N HIGH ST,0,
39.948683,0,7398,-83.110851,GEOCASN,,,,GEORGESVILLE RD & CASINO SERVICE RD,0,
40.056028,0,3921,-82.964105,BELBEL1W,,,,BELCHER DR & BELCHER CT,0,
39.974148,0,2522,-82.89389,BROBEETW,,,,E BROAD ST & BEECHTREE RD,0,
39.994324,0,1829,-82.995525,11TGRAW,,,,E 11TH AVE & N GRANT AVE,0,
40.009723,0,1243,-83.058083,NORWILSS,,,,NORTHWEST BLVD & WILSHIRE DR,0,
39.984585,0,4416,-82.917844,5THKRUE,,,,E 5TH AVE & KRUMM AVE,0,
39.975445,0,4419,-82.876921,FAIBROS,,,,FAIRWAY BLVD & E BROAD ST,0,
40.056223,0,6704,-82.886066,MORCHEE1,,,,MORSE RD & CHERRY BOTTOM RD,0,
39.977137,0,1715,-83.003802,BUTHIGE,,,,BUTTLES AVE & N HIGH ST,0,
39.940678,0,6402,-82.943606,ALUALUS,,,,ALUM CREEK DR & ALUM INDUSTRIAL DR N,0,
40.047422,0,1760,-82.988297,MAICOON,,,,MAIZE RD & E COOKE RD,0,
40.080668,0,5766,-83.14131,EMEGLEN,,,,EMERALD PKWY & GLENDON CT,0,
39.955668,0,2663,-83.056952,BROWHIE,,,,W BROAD ST & WHITETHORNE AVE,0,
39.977222,0,1687,-83.004028,BUTHIGW,,,,BUTTLES AVE & N HIGH ST,0,
39.972493,0,1091,-82.990132,CLEJACN,,,,CLEVELAND AVE & JACK GIBBS BLVD,0,
40.029301,0,3490,-83.034629,NORENTE,,,,W NORTH BROADWAY & RIVERSIDE HOSP,0,
39.854365,0,2020,-82.896041,MAIHENNW,,,,MAIN ST & HENDRON RD,0,
40.047925,0,1784,-82.988417,MAICOOS,,,,MAIZE RD & E COOKE RD,0,
39.940747,0,6313,-82.943402,ALUALUN,,,,ALUM CREEK DR & ALUM INDUSTRIAL DR N,0,
40.119374,0,7492,-82.995326,SANWORN,,,,SANCUS BLVD & WORTHINGTON WOODS BLVD,0,
39.962924,0,2052,-82.974766,OAKHOFWF,,,,OAK ST & HOFFMAN AVE,0,
39.939384,0,2406,-83.10285,EAKHOLW,,,,EAKIN RD & HOLLY HILL DR,0,
39.944362,0,1956,-82.871636,LIVSHAE,,,,E LIVINGSTON AVE & SHADY LANE RD,0,
39.938988,0,4059,-83.116127,SULCOUE,,,,SULLIVANT AVE & COUNTRYBROOK DR E,0,
39.939315,0,2418,-83.102832,EAKHOLE,,,,EAKIN RD & HOLLY HILL DR,0,
39.926463,0,2961,-83.057121,HAR151S,,,,1515 HARRISBURG PIKE,0,
39.996733,0,5742,-83.011432,12T153E,,,,153 W 12TH AVE - HALE HALL,0,
39.944474,0,1971,-82.871041,LIVSHAW,,,,E LIVINGSTON AVE & SHADY LANE RD,0,
39.929032,0,5064,-82.834382,SCAALSE,,,,SCARBOROUGH BLVD & ALSHIRE RD,0,
40.029015,0,3489,-83.042568,NORSHAE,,,,W NORTH BROADWAY & SHATTUCK AVE,0,
39.997675,0,1594,-83.061,ARLWALS,,,,ARLINGTON AVE & WALTHAM RD,0,
39.982386,0,1403,-83.015621,PEN2NDS,,,,PENNSYLVANIA AVE & W 2ND AVE,0,
40.005509,0,4072,-82.963676,JOY23RN,,,,JOYCE AVE & E 23RD AVE,0,
40.099606,0,1250,-83.021381,LARSCHE,,,,LARRIMER AVE & SCHREINER ST W,0,
39.989231,0,1598,-83.060186,ARL5THS,,,,ARLINGTON AVE & W 5TH AVE,0,
40.005325,0,4858,-82.963891,JOY23RS,,,,JOYCE AVE & E 23RD AVE,0,
40.008692,0,1110,-82.970345,CLEDUXN,,,,CLEVELAND AVE & DUXBERRY AVE,0,
39.956578,0,2293,-82.917553,MAIBROE1,,,,E MAIN ST & BROOKSIDE DR,0,
39.965786,0,2546,-82.970657,BROOHIW,,,,E BROAD ST & N OHIO AVE,0,
39.968475,0,2484,-82.945113,BROPARE,,,,E BROAD ST & PARK DR,0,
40.029258,0,3423,-83.042184,NORSHAW,,,,W NORTH BROADWAY & SHATTUCK AVE,0,
40.060807,0,3913,-82.961688,NORMORN,,,,NORTHTOWNE BLVD & MORSE RD,0,
39.98622,0,1654,-82.913699,7THSTEE,,,,E 7TH AVE & STELZER RD,0,
39.983318,0,1095,-82.989321,CLE3RDN,,,,CLEVELAND AVE & E 3RD AVE,0,
40.099661,0,4666,-83.020799,LARSCHW,,,,LARRIMER AVE & SCHREINER ST W,0,
39.98671,0,1511,-83.002122,SUM5THS,,,,SUMMIT ST & E 5TH AVE,0,
39.975437,0,1905,-82.97935,CALOLDS,,,,CALDWELL PL & LEONARD AVE,0,
40.103727,0,3040,-82.963119,SHABRON,,,,SHARON WOODS BLVD & BROOKHURST AVE,0,
39.938505,0,2254,-82.996029,HIGMITN,,,,S HIGH ST & E MITHOFF ST,0,
39.974241,0,2907,-83.023787,GOOYARW,,,,GOODALE BLVD & YARD ST,0,
39.992036,0,1900,-82.949948,BREWOOS,,,,BRENTNELL AVE & WOODWARD AVE,0,
39.942763,0,4955,-83.093953,SULWILW,,,,SULLIVANT AVE & N WILSON RD,0,
39.991938,0,1843,-82.949824,BREWOON,,,,BRENTNELL AVE & WOODWARD AVE,0,
39.957314,0,4085,-82.999596,HIGRICN,,,,S HIGH ST & E RICH ST,0,
40.116944,0,5244,-83.067235,SMOHARS,,,,SMOKY ROW RD & HARD RD,0,
40.019133,0,3635,-82.9745,GENMEDW,,,,GENESSEE AVE & MEDINA AVE,0,
39.960003,0,2094,-82.990213,TOWGRAW,,,,E TOWN ST & S GRANT AVE,0,
39.974163,0,2947,-83.026091,GOOYARE,,,,GOODALE BLVD & YARD ST,0,
39.88154,0,1309,-83.080869,COLRICW,,,,COLUMBUS ST & RICHARD AVE,0,
39.98888,0,1604,-83.047631,5THFAIE,,,,W 5TH AVE & FAIRVIEW AVE,0,
39.955864,0,2664,-83.053095,BROLECE,,,,W BROAD ST & LECHNER AVE,0,
40.068345,0,3059,-82.961909,NORBRIE,,,,NORTHTOWNE BLVD & BRITTANY RD,0,
39.95984,0,2562,-82.876524,HAMLANS,,,,S HAMILTON RD & LANGLEY AVE,0,
39.959431,0,5484,-83.024263,BROHARTW,,,,W BROAD ST & N HARTFORD AVE,0,
40.031393,0,5254,-83.131162,HILRIDS,,,,HILLIARD PARK AND RIDE,0,
39.981553,0,3758,-82.980157,SAI2NDS,,,,SAINT CLAIR AVE & E 2ND AVE,0,
40.020651,0,3619,-82.95599,PARABES,,,,PARKWOOD AVE & ABERDEEN AVE,0,
39.989,0,1533,-83.047544,5THFAIW,,,,W 5TH AVE & FAIRVIEW AVE,0,
40.009794,0,3939,-82.94299,BARDELN,,,,BAR HARBOR RD & DELAVAN DR,0,
39.96002,0,3938,-82.876287,HAMLANN,,,,S HAMILTON RD & LANGLEY AVE,0,
40.058596,0,3508,-83.034747,OLEOLDES,,,,OLENTANGY RIVER RD & OLDE TOWNE AVE,0,
39.956042,0,2635,-83.053535,BROLECW,,,,W BROAD ST & LECHNER AVE,0,
40.068445,0,1906,-82.961824,NORBRIW,,,,NORTHTOWNE BLVD & BRITTANY RD,0,
39.955916,0,2462,-83.012863,RICMCDE,,,,W RICH ST & MCDOWELL ST,0,
40.026761,0,3166,-82.932426,CASSUNE,,,,N CASSADY AVE & SUNBURY RD,0,
40.10497,0,3996,-82.9783,AMBSCHN,,,,AMBLESIDE DR & SCHROCK RD,0,
40.065997,0,4900,-83.023465,GRA152W,,,,152 GRACELAND BLVD WEST,0,
39.912717,0,6954,-82.832576,REFBRIE,,,,REFUGEE RD & BRICE RD,0,
40.030404,0,5557,-83.153864,CEMNORW,,,,CEMETERY RD & NORWICH ST,0,
39.95605,0,7294,-83.012844,RICMCDW,,,W RICH ST & MCDOWELL ST,E RICH ST & MCDOWELL ST,0,
40.029679,0,4377,-82.889763,STYGAMS,,,,N STYGLER RD & GAMEWOOD DR,0,
39.912433,0,7291,-82.960326,KOEEDSW1,,,,KOEBEL RD & EDSEL AVE,0,
39.912878,0,6958,-82.832552,REFBRIW,,,,REFUGEE RD & BRICE RD,0,
39.986802,0,5723,-82.873383,5TH480W,,,,4800 E 5TH AVE,0,
40.104964,0,3978,-82.978433,AMBSCHS,,,,AMBLESIDE DR & SCHROCK RD,0,
39.86725,0,7064,-82.935235,ALUGRON,,,,ALUM CREEK DR & GROVEPORT RD,0,
39.985403,0,3181,-82.93154,CAS5THS,,,,N CASSADY AVE & E 5TH AVE,0,
39.936435,0,4547,-82.897786,COUDESS,,,,COURTRIGHT RD & E DESHLER AVE,0,
40.031479,0,1807,-82.980703,MCGOAKS,,,,MCGUFFEY RD & OAKLAND PARK AVE,0,
39.921481,0,2167,-82.89636,KIMCOUE,,,,KIMBERLY PKWY N & COURTRIGHT RD,0,
39.95372,0,2457,-83.020362,DAVSULN,,,,S DAVIS AVE & SULLIVANT AVE,0,
39.959899,0,2065,-82.989878,TOWGRAE,,,,E TOWN ST & S GRANT AVE,0,
40.031606,0,1740,-82.980545,MCGOAKN,,,,MCGUFFEY RD & OAKLAND PARK AVE,0,
39.98695,0,6409,-82.9999,5TH4THW,,,,E 5TH AVE & N 4TH ST,0,
39.997906,0,5933,-83.009612,COLOHUN,,,N COLLEGE RD & W 12TH AVE,S COLLEGE RD & W 12TH AVE,0,
39.936833,0,4343,-82.897596,COUDESN,,,,COURTRIGHT RD & E DESHLER AVE,0,
39.972248,0,7514,-82.911966,BROASHW,,,,E BROAD ST & N ASHBURTON RD,0,
40.107801,0,5400,-82.931393,BROGRECN,,,,BROOKSEDGE BLVD & GREENCREST DR,0,
39.991206,0,3801,-83.035616,KINKENE,,,,KING AVE & KENNY RD,0,
39.965987,0,4176,-83.004625,SPRMARW,,,,W SPRING ST & MARCONI BLVD,0,
39.955427,0,2640,-83.065718,BROEURW,,,,W BROAD ST & N EUREKA AVE,0,
40.111271,0,6559,-82.942799,COOSCHN,,,,COOPER RD & SCHROCK RD,0,
39.923247,0,3909,-82.880068,HAMMACS,,,,S HAMILTON RD & MACSWAY AVE,0,
39.98779,0,1158,-82.987898,CLEESSS,,,,CLEVELAND AVE & ESSEX AVE,0,
40.114384,0,6509,-83.006167,HUN733N,,,,7330 HUNTINGTON PARK DR,0,
39.998512,0,2526,-82.868076,HAMPIZN,,,,HAMILTON RD & PIZZURO PARK DR,0,
39.945181,0,1975,-82.883452,LIVWESW,,,,E LIVINGSTON AVE & WESTPHAL AVE,0,
39.915055,0,3243,-82.873509,REFTENE,,,,REFUGEE RD & TENNYSON BLVD,0,
40.110941,0,6562,-82.946131,SCHLAUW,,,,W SCHROCK RD & LAUFFER RD,0,
39.968956,0,7328,-82.968282,CHALONN,,,,CHAMPION AVE & E LONG ST,0,
40.030561,0,2566,-82.899158,LIN442N,,,442 LINCOLNSHIRE RD & KENILWORTH CT,442 LINCOLNSHIRE RD,0,
39.968716,0,1780,-82.995499,NAG5THE,,,,E NAGHTEN ST & N 5TH ST,0,
40.045064,0,3137,-82.9581,CLECOOS,,,,CLEVELAND AVE & E COOKE RD,0,
40.076818,0,1260,-83.018842,HIGSELS,,,,N HIGH ST & W SELBY BLVD,0,
40.007145,0,3789,-83.054593,LANWESE,,,,W LANE AVE & WESTMONT BLVD,0,
40.026313,0,5499,-83.091374,RIVNOTS,,,,RIVERSIDE DR & NOTTINGHAM RD,0,
40.090267,0,1584,-82.897915,VALPURW,,,,VALLEY QUAIL N & PURPLEFINCH CT,0,
39.945236,0,1969,-82.86805,COUBEN2S,,,,COUNTRY CLUB RD & S BENSON DR,0,
40.077079,0,1229,-83.018629,HIGSELN,,,,N HIGH ST & E SELBY BLVD,0,
40.065308,0,6555,-83.070723,MCKCROS,,,,MCKITRICK BLVD & CROWN PARK CT,0,
40.00726,0,3779,-83.054069,LANWESW,,,,W LANE AVE & WESTMONT BLVD,0,
39.844288,0,3276,-82.805558,HIGMOUSC,,,,S HIGH ST & W MOUND ST,0,
39.911203,0,2966,-83.069367,HARBLUS,,,,HARRISBURG PIKE & BLUE ROCK BLVD,0,
39.967678,0,4772,-82.913955,JAMELBS,,,,S JAMES RD & ELBERN AVE,0,
40.023532,0,3339,-83.043678,FISKENW,,,,FISHINGER RD & KENNY RD,0,
39.953864,0,2017,-82.996165,FUL3RDW,,,,E FULTON ST & S 3RD ST,0,
39.960746,0,2678,-83.011979,BRO429E,,,,429 W BROAD ST,0,
39.969126,0,2186,-82.951217,LONNELW,,,,E LONG ST & N NELSON RD,0,
39.968148,0,4769,-82.913691,JAMELBN,,,,S JAMES RD & ELBERN AVE,0,
39.910849,0,1313,-83.069464,HARBLUN,,,,HARRISBURG PIKE & BLUE ROCK BLVD,0,
40.020418,0,1557,-83.061514,TRELANGN,,,,TREMONT RD & LANGHAM RD,0,
39.990966,0,3818,-83.026604,KINOLEW,,,,KING AVE & OLENTANGY RIVER RD,0,
40.090401,0,3035,-82.97032,SHAHAMN,,,,SHARON WOODS BLVD & HAMPSTEAD DR,0,
39.933492,0,2824,-82.983703,PARJENN,,,,PARSONS AVE & E JENKINS AVE,0,
39.996391,0,1543,-83.060583,ARLEDGN,,,,ARLINGTON AVE & EDGEMONT RD,0,
39.94606,0,1947,-82.901894,LIVCUNE,,,,E LIVINGSTON AVE & CUNARD RD,0,
39.988966,0,1301,-83.005955,HIGCLAS,,,,N HIGH ST & CLARK PL,0,
39.944929,0,2706,-83.066236,SULTERW,,,,SULLIVANT AVE & S TERRACE AVE,0,
40.037125,0,4530,-82.96246,CLEINNN,,,,CLEVELAND AVE & INNIS RD,0,
39.987437,0,1520,-83.012906,5THNEIW,,,,W 5TH AVE & NEIL AVE,0,
39.987609,0,1184,-83.005524,HIG5THN,,,,N HIGH ST & E 5TH AVE,0,
39.944557,0,2379,-83.040436,MOURYAW,,,,W MOUND ST & RYAN AVE,0,
39.92451,0,6828,-82.8322,CHANBRIW,,,,CHANTRY DR & BRICE RD,0,
39.902621,0,3923,-82.866268,HARBEEW,,,,HARBOR BLVD & BEECHTON RD,0,
40.108732,0,4398,-83.065063,SMOQUEN,,,,SMOKY ROW RD & QUEENSBRIDGE DR,0,
39.985209,0,6820,-82.790515,BROWAGE,,,,E BROAD ST & WAGGONER RD,0,
39.926128,0,3931,-82.879515,HAMKINN,,,,S HAMILTON RD & KINGSLAND AVE,0,
40.108592,0,5246,-83.065135,SMOQUES,,,,SMOKY ROW RD & QUEENSBRIDGE DR,0,
40.055251,0,7421,-83.034351,JASOLEW,,,JASONWAY AVE & MCKITRICK BLVD,JASONWAY AVE & OLENTANGY RIVER RD,0,
39.942184,0,4025,-82.830486,LIVBRIW,,,,E LIVINGSTON AVE & BRICE RD,0,
39.958556,0,2671,-83.030116,BROGLEE,,,,W BROAD ST & S GLENWOOD AVE,0,
39.944354,0,2447,-83.040742,MOURYAE,,,,W MOUND ST & RYAN AVE,0,
39.931744,0,2960,-83.048832,HAREAKS1,,,,HARRISBURG PIKE & EAKIN RD,0,
39.944217,0,2257,-82.997042,HIGWHIN,,,,S HIGH ST & E WHITTIER ST,0,
40.078773,0,7162,-83.131277,BLAPARS1,,,PAUL BLAZER PKWY & PARKCENTER AVE,BLAZER PKWY & PARKCENTER CIR,0,
39.949553,0,2831,-82.982476,PARSYCN,,,,PARSONS AVE & SYCAMORE ST,0,
39.945927,0,4839,-82.906409,BARLIVS,,,,BARNETT RD & E LIVINGSTON AVE,0,
39.96472,0,4112,-82.998504,3RDLONS,,,,N 3RD ST & E LONG ST,0,
39.924632,0,6829,-82.835145,CHANMEIW,,,,CHANTRY DR AT 2ND MEIJER ENTRANCE,0,
39.956375,0,2464,-83.008919,RICSTAE,,,,W RICH ST & STARLING ST,0,
39.95232,0,2013,-82.983164,LIVPARW,,,,E LIVINGSTON AVE & PARSONS AVE,0,
39.946157,0,4744,-82.906283,BARLIVN,,,,BARNETT RD & E LIVINGSTON AVE,0,
39.95211,0,1914,-82.98277,LIVPARE,,,,E LIVINGSTON AVE & PARSONS AVE,0,
40.096122,0,7107,-83.13209,METCRPW,,,,METRO PL N & CROWN PLAZA,0,
39.955657,0,2316,-82.879891,MAIBERW,,,,E MAIN ST & BERNHARD RD,0,
40.025778,0,1119,-82.964395,CLELAKN,,,,CLEVELAND AVE & E LAKEVIEW AVE,0,
39.989514,0,5226,-83.10183,TRABENW,,,,TRABUE RD & BENDELOW DR,0,
40.099133,0,3993,-82.980646,AMBCARN,,,,AMBLESIDE DR & CARDWELL SQ N,0,
39.955496,0,2306,-82.880056,MAIBERE,,,,E MAIN ST & BERNHARD RD,0,
40.007846,0,1501,-83.000721,SUMALDS,,,,SUMMIT ST & ALDEN AVE,0,
40.090752,0,1235,-83.01787,HIGSTAFN,,,,HIGH ST & STAFFORD AVE,0,
40.025701,0,1810,-82.981291,MCGCOMS,,,,MCGUFFEY RD & E COMO AVE,0,
40.031413,0,6087,-83.003938,NOR366W,,,366 E NORTH BROADWAY ST,366 E NORTH BROADWAY,0,
39.973919,0,2502,-82.894701,BROBEETE,,,,E BROAD ST & BEECHTREE RD,0,
39.974442,0,1409,-83.010669,NEIGOOS,,,,NEIL AVE & W GOODALE ST,0,
39.989346,0,5227,-83.101894,TRABENE,,,,TRABUE RD & BENDELOW DR,0,
39.97761,0,4468,-83.084056,HAGELPN,,,,N HAGUE AVE & EL PASO DR,0,
39.982403,0,2921,-83.056614,1STLINW,,,,W 1ST AVE & LINCOLN RD,0,
39.954873,0,2497,-82.859638,MAIFOUNE,,,,E MAIN ST & FOUNTAIN LN,0,
39.974842,0,2946,-83.029264,NORGOOS,,,,NORTHWEST BLVD & GOODALE BLVD,0,
40.057928,0,7425,-83.040909,JASKNIN,,,,JASONWAY AVE & KNIGHTSBRIDGE BLVD,0,
40.042478,0,5978,-82.91016,MORSTEW,,,MORSE XING & STELZER ROAD,MORSE CROSSING & STELZER RD,0,
40.006947,0,1109,-82.971424,CLE25TN,,,,CLEVELAND AVE & E 25TH AVE,0,
39.980285,0,4349,-82.913096,STEJAMN,,,,STELZER RD & N JAMES RD,0,
40.004025,0,3833,-83.01608,WOOTULPE,,,,W WOODRUFF AVE & TUTTLE PARK PL,0,
40.042278,0,5977,-82.910301,MORSTEE,,,MORSE XING & STELZER ROAD,MORSE CROSSING & STELZER RD,0,
40.017686,0,7366,-82.866692,HAMGRAS1,,,,S HAMILTON RD & GRANVILLE ST,0,
40.027958,0,3175,-83.046966,KENLONS,,,,KENNY RD & LONDON DR,0,
40.058124,0,7426,-83.041146,JASKNIS,,,,JASONWAY AVE & KNIGHTSBRIDGE BLVD,0,
39.974832,0,2908,-83.02899,NORGOON,,,,NORTHWEST BLVD & GOODALE BLVD,0,
39.943761,0,3576,-82.971989,OHIWHIS,,,,S OHIO AVE & E WHITTIER ST,0,
39.935536,0,2157,-82.983382,FREPARW,,,,FREBIS AVE & PARSONS AVE,0,
39.942938,0,2720,-83.08799,SULDEXE,,,,SULLIVANT AVE & DEXTER AVE,0,
39.985583,0,5855,-83.07378,5THSEAPW,,,2550 W 5TH AVE & MCKINLEY AVE,W 5TH AVE & SEAPORT,0,
39.94315,0,3188,-82.850289,LIVLONE,,,,E LIVINGSTON AVE & LONSDALE RD,0,
39.96334,0,4131,-83.033499,MCKYALE,,,,MCKINLEY AVE & N YALE AVE,0,
40.011664,0,3781,-83.057797,NORNORTN,,,,NORTHWEST BLVD & NORTHAM RD,0,
40.090261,0,3970,-82.975397,KAR602N,,,,6024 KARL RD,0,
39.935431,0,2109,-82.983818,FREPARE,,,,FREBIS AVE & PARSONS AVE,0,
40.01193,0,2853,-83.057937,NORNORTS,,,,NORTHWEST BLVD & NORTHAM RD,0,
40.018637,0,3614,-82.965325,GENCLEE,,,,GENESSEE AVE & CLEVELAND AVE,0,
39.949746,0,1918,-82.972636,LIV22NE,,,,E LIVINGSTON AVE & S 22ND ST,0,
39.838947,0,6376,-83.08508,SEEMEAE,,,SEEDS RD & MEADOWS DR,SEEDS RD & S MEADOWS RD,0,
39.919658,0,2245,-82.995279,HIG205N,,,2050 Unit KINGSTON,2050 S HIGH ST,0,
39.963424,0,4189,-83.033408,MCKYALW,,,,MCKINLEY AVE & N YALE AVE,0,
39.991432,0,1597,-83.060346,ARLCHES,,,,ARLINGTON AVE & W CHELSEA RD,0,
39.948691,0,1998,-82.948918,LIVRHOW,,,,E LIVINGSTON AVE & RHOADS AVE,0,
40.088,0,3969,-82.975155,KAR161N,,,,KARL RD & STATE ROUTE 161,0,
39.984516,0,6417,-83.123363,TRAWESW,,,,TRABUE RD & WESTBELT DR,0,
39.945921,0,5089,-82.994678,3RDKOSN,,,,S 3RD ST & KOSSUTH ST,0,
39.953242,0,4242,-83.111634,BRO4158W,,,4158 W BROAD ST & NATIONWIDE BLVD,4158 W BROAD ST,0,
40.027341,0,4693,-82.959176,AGLWESW,,,,AGLER RD & WESTERVILLE RD,0,
40.022595,0,1576,-83.063001,RIDSOME,,,,RIDGECLIFF RD & SOMERFORD RD,0,
40.089889,0,5707,-83.049602,LIN161S,,,,LINWORTH RD & STATE ROUTE 161,0,
39.891621,0,2810,-82.986899,PARWILN,,,,PARSONS AVE & WILLIAMS RD,0,
40.107081,0,7052,-82.966461,SCHHICW,,,,SCHROCK RD & HICKORY CREEK LN,0,
40.089908,0,3502,-83.049451,LIN161N,,,,LINWORTH RD & STATE ROUTE 161,0,
39.849345,0,3273,-82.804739,HIGFAISF,,,,HIGH ST & W FAIRFIELD ST,0,
39.939285,0,3522,-82.827489,REYRIDSW,,,2100 BIRCHVIEW DR & REYNOLDSBURG P & R,BIRCHVIEW DR & REYNOLDSBURG P & R,0,
40.022694,0,1559,-83.063418,RIDSOMW,,,,RIDGECLIFF RD & SOMERFORD RD,0,
39.945516,0,5086,-82.994786,3RDKOSS,,,,S 3RD ST & KOSSUTH ST,0,
39.850095,0,6626,-82.8046,HIGFAISN,,,,HIGH ST & W FAIRFIELD ST,0,
40.087952,0,4003,-82.975345,KAR161S,,,,KARL RD & STATE ROUTE 161,0,
39.952709,0,2016,-82.99312,LIVMOHW,,,,E LIVINGSTON AVE & MOHAWK ST,0,
39.956717,0,427,-82.998886,SOUTER7,,,COTA SOUTH TERMINAL SOUTHBOUND PATH & E MAIN ST,COTA TRANSIT TERMINAL BAY 7,0,
39.956896,0,478,-82.998946,SOUTER6,,,COTA SOUTH TERMINAL NORTHBOUND PATH & E MAIN ST,COTA TRANSIT TERMINAL BAY 6,0,
39.956913,0,524,-82.998934,SOUTER5,,,COTA SOUTH TERMINAL SOUTHBOUND PATH & E RICH ST,COTA TRANSIT TERMINAL BAY 5,0,
39.947662,0,1958,-82.867273,COUFOLN,,,,COUNTRY CLUB RD & FOLGER DR,0,
39.957101,0,467,-82.99897,SOUTER3,,,COTA SOUTH TERMINAL SOUTHBOUND PATH & E RICH ST,COTA TRANSIT TERMINAL BAY 3,0,
39.95727,0,388,-82.999017,SOUTER2,,,COTA SOUTH TERMINAL NORTHBOUND PATH & E RICH ST,COTA TRANSIT TERMINAL BAY 2,0,
40.025331,0,6179,-82.911042,STEOPPS,,,,STELZER RD & CODET RD,0,
40.031314,0,6074,-83.004264,NOR411E,,,411 E NORTH BROADWAY ST,411 E NORTH BROADWAY,0,
39.943368,0,2770,-82.96615,WHILINW,,,,E WHITTIER ST & LINWOOD AVE,0,
39.95653,0,454,-82.998851,SOUTER9,,,COTA SOUTH TERMINAL SOUTHBOUND PATH & E MAIN ST,COTA TRANSIT TERMINAL BAY 9,0,
39.956699,0,498,-82.998898,SOUTER8,,,COTA SOUTH TERMINAL NORTHBOUND PATH & E MAIN ST,COTA TRANSIT TERMINAL BAY 8,0,
39.946922,0,1942,-82.917413,LIVKELE1,,,,E LIVINGSTON AVE & S KELLNER RD,0,
39.997793,0,6696,-83.009775,COL12THS,,,N COLLEGE RD & W 12TH AVE,COLLEGE RD & 12TH AVE,0,
39.957391,0,2340,-82.942165,MAIPARKW,,,,E MAIN ST & S PARKVIEW AVE,0,
39.979117,0,5652,-82.962875,LEOTAYE,,,,LEONARD AVE & OSU CAREPOINT EAST,0,
39.953041,0,3572,-82.971293,OHIMOOS,,,,S OHIO AVE & MOOBERRY ST,0,
40.008752,0,7386,-82.864895,MORHEMN,,,,MORRISON RD & HEMSTON DR,0,
40.037304,0,3940,-82.958725,INNDERW,,,,INNIS RD & DERBYSHIRE DR,0,
40.023202,0,3692,-82.973776,WEBMEDW,,,,E WEBER RD & MEDINA AVE,0,
39.987441,0,3205,-82.88947,5TH4301W,,,,4301 E 5TH AVE,0,
39.985846,0,4281,-82.842949,TAYOPPN,,,,TAYLOR STATION RD & BELLTOWNE BLVD,0,
40.090465,0,3356,-82.975471,KAR603S,,,,6035 KARL RD,0,
40.037124,0,1125,-82.958278,INNDERE,,,,INNIS RD & DERBYSHIRE DR,0,
40.013634,0,7367,-82.867114,HAMROCS,,,,S HAMILTON RD & ROCKY FORK BLVD,0,
40.0231,0,3686,-82.974008,WEBMEDE,,,,E WEBER RD & MEDINA AVE,0,
40.060876,0,6372,-83.019475,HIGROYN1,,,,N HIGH ST & E ROYAL FOREST BLVD,0,
40.095516,0,3120,-82.925489,WESEMRS,,,,WESTERVILLE RD & EMRICK RD,0,
39.9402,0,2440,-83.056159,MOUCLAE,,,,W MOUND ST & CLARENDON AVE,0,
39.984987,0,1640,-82.956336,5THLEONE,,,,E 5TH AVE & LEONARD AVE,0,
39.915317,0,3242,-82.878453,REFCITE,,,,REFUGEE RD & CITIZENS PL,0,
39.969274,0,5170,-82.826759,BRIROSDN,,,,BRICE RD & ROSEDALE AVE,0,
40.050026,0,3437,-83.04971,KENFOLN,,,,KENNY RD & FOLKESTONE RD,0,
39.940321,0,6805,-83.056244,MOUCLAW,,,,MOUND ST & CLARENDON AVE,0,
39.968968,0,5176,-82.827,BRIROSDS,,,,BRICE RD & ROSEDALE AVE,0,
39.904202,0,2134,-82.962946,GROSOUE,,,,GROVEWOOD DR & SOUTHFIELD DR,0,
39.986238,0,1668,-82.95283,5THLEONW,,,,E 5TH AVE & LEONARD AVE,0,
40.013425,0,1143,-82.967624,CLEHUDS,,,,CLEVELAND AVE & E HUDSON ST,0,
39.962801,0,2569,-82.876061,HAMKAEN,,,,S HAMILTON RD & KAE AVE,0,
40.000285,0,1190,-83.007989,HIG15TN,,,,N HIGH ST & E 15TH AVE,0,
39.993036,0,5665,-82.839561,TAY926N,,,,926 TAYLOR STATION RD,0,
39.977998,0,6604,-83.030169,NORWILLS,,,,NORTHWEST BLVD & WILLIAMS AVE,0,
39.993457,0,2865,-83.041924,NORCHASE,,,,NORTHWEST BLVD & CHAMBERS RD,0,
40.062298,0,1465,-83.014237,MORFOSW,,,,MORSE RD & FOSTER ST,0,
39.954696,0,4557,-83.034217,TOWPRIW,,,,W TOWN ST & S PRINCETON AVE,0,
39.999731,0,1295,-83.008093,HIG15TS,,,,N HIGH ST & E 15TH AVE,0,
39.997008,0,5704,-82.913088,STE17TN,,,,STELZER RD & 17TH AVE,0,
40.062158,0,1470,-83.014094,MORFOSE,,,,MORSE RD & FOSTER ST,0,
39.996987,0,5691,-82.913359,STE17TS,,,,STELZER RD & 17TH AVE,0,
39.954639,0,4566,-83.033758,TOWPRIE,,,,W TOWN ST & S PRINCETON AVE,0,
40.069464,0,5335,-83.116489,FRAMCGSE,,,,FRANTZ RD & MCGRATH DR,0,
39.972225,0,2529,-82.912489,BROJAMW,,,,E BROAD ST & N JAMES RD,0,
39.94936,0,2697,-83.04266,SULCATW,,,,SULLIVANT AVE & CATHERINE ST,0,
39.977925,0,2910,-83.02979,NORWILLN,,,,NORTHWEST BLVD & WILLIAMS AVE,0,
39.955741,0,6354,-82.787475,MAIOAKW,,,,E MAIN ST & OAK VALLEY RD,0,
40.019862,0,1439,-83.001789,INDPARN,,,,INDIANOLA AVE & PARKVIEW DR,0,
40.087678,0,3034,-82.96941,SHA161N,,,,SHARON WOODS BLVD & STATE ROUTE 161,0,
39.960251,0,2082,-82.954738,BRYMORW,,,,BRYDEN RD & MORRISON AVE,0,
40.107878,0,5405,-82.931705,BRO675S,,,,675 BROOKSEDGE BLVD,0,
40.001741,0,1504,-83.001135,SUM18TS,,,SUMMIT ST & ALY,SUMMIT ST & E 18TH AVE,0,
39.943134,0,5087,-82.9939,REINHAE,,,,REINHARD AVE & S 3RD ST,0,
40.081295,0,3095,-82.928354,WES161N,,,,WESTERVILLE RD & STATE ROUTE 161,0,
39.96305,0,2053,-82.977833,OAKDOUW,,,,OAK ST & S DOUGLAS ST,0,
40.021126,0,3173,-82.9234,GATAGLS,,,,GATEWOOD RD & AGLER RD,0,
39.955797,0,7400,-82.991303,MOU5THW1,,,,E MOUND ST & S 5TH ST,0,
39.985183,0,1183,-83.005031,HIG4THN,,,,N HIGH ST & E 4TH AVE,0,
39.97099,0,4314,-82.949444,NELCLIS,,,,N NELSON RD & CLIFTON AVE,0,
39.943237,0,5088,-82.994001,REINHAW,,,,REINHARD AVE & S 3RD ST,0,
40.087557,0,3051,-82.96969,SHA161S,,,,SHARON WOODS BLVD & STATE ROUTE 161,0,
39.963165,0,2054,-82.980719,OAKGARW,,,,OAK ST & S GARFIELD AVE,0,
39.946867,0,2702,-83.055911,SULWHIW,,,,SULLIVANT AVE & WHITETHORNE AVE,0,
39.991362,0,3799,-83.039978,KINNORE,,,,KING AVE & NORTHWEST BLVD,0,
39.973,0,5175,-82.826625,BRIRUGS,,,,BRICE RD & RUGOSA AVE,0,
39.9848,0,1658,-82.92061,5THSTERW,,,,E 5TH AVE & STERLING AVE,0,
40.075994,0,4039,-83.008029,CHASHAE,,,,CHASE RD & SHARON PARK AVE,0,
40.083338,0,6571,-83.13022,BLARINN,,,,BLAZER PKWY & RINGS RD,0,
40.083503,0,6572,-83.130513,BLARINS,,,,BLAZER PKWY & RINGS RD,0,
39.906842,0,7015,-82.823043,GENPRIW,,,,GENDER RD T C & PRIVATE DR,0,
39.973161,0,5171,-82.826456,BRIRUGN,,,,BRICE RD & RUGOSA AVE,0,
40.105717,0,7053,-82.969508,SKYSCHS,,,,SKYWAE DR & SCHROCK RD,0,
40.091675,0,3984,-82.979567,AMBWHIS,,,,AMBLESIDE DR & WHITBY SQ S,0,
39.985071,0,4427,-82.912528,OSB5THN,,,,OSBORN AVE & E 5TH AVE,0,
39.882139,0,4637,-82.998271,OBESOUW,,,,OBETZ RD & SOUTHPOINT BLVD,0,
39.880965,0,5883,-83.05603,GANOHIS,,,GANTZ RD W & OHIO DR,GANTZ RD & OHIO DR,0,
39.984802,0,1655,-82.912771,OSB5THS,,,,OSBORN AVE & E 5TH AVE,0,
39.976711,0,5309,-82.811443,LANTOMN,,,,LANCASTER AVE & TOMAHAWK TRAIL,0,
40.003783,0,7279,-82.979639,HAM20TN,,,,HAMILTON AVE & E 20TH AVE,0,
40.085426,0,7552,-82.742838,904SMIN,,,,9040 SMITH'S MILL RD,0,
39.948295,0,1996,-82.941002,LIVMAYW,,,,E LIVINGSTON AVE & MAYFIELD PL,0,
39.991438,0,2193,-83.03924,KINOPPW,,,,KING AVE & MEADOW RD,0,
40.056697,0,6207,-82.890741,MORSTYW,,,,MORSE RD & N STYGLER RD,0,
40.039137,0,4665,-82.988989,MAIMOON,,,,MAIZE RD & MOON RD,0,
40.009419,0,4865,-82.859532,WATDUNS1,,,,WATERBURY BLVD & DUNOON DR,0,
40.046871,0,1275,-83.020053,HIGWESS,,,,N HIGH ST & WESTWOOD RD,0,
39.94815,0,6091,-82.941161,LIVMAYE,,,,E LIVINGSTON AVE & MAYFIELD PL,0,
40.096026,0,3073,-82.95013,CLEBELLN,,,,CLEVELAND AVE & BELLA VIA AVE,0,
40.016387,0,1861,-82.948213,MYRBREW,,,,MYRTLE AVE & BRENTNELL AVE,0,
39.851871,0,3286,-82.886695,MAICOLLE,,,,MAIN ST & COLLEGE ST,0,
40.059717,0,5970,-82.954673,MORCLEW,,,,MORSE RD & CLEVELAND AVE,0,
40.051865,0,4681,-83.033128,HENOLEE,,,,W HENDERSON RD & OLENTANGY RIVER RD,0,
40.017257,0,2620,-82.890527,STY124N,,,124 S STYGLER RD,124 STYGLER RD,0,
40.027318,0,6054,-82.964267,CLEAGLN,,,,CLEVELAND AVE & AGLER RD,0,
39.847493,0,3271,-82.804946,HIGJENN,,,,N HIGH ST & JENNINGS DR,0,
40.038073,0,4203,-83.017682,HIGERIS,,,,N HIGH ST & ERIE RD,0,
39.851939,0,3290,-82.886196,MAICOLLW,,,,MAIN ST & COLLEGE ST,0,
40.018653,0,3342,-83.056363,ZOLBRAE,,,,ZOLLINGER RD & BRANDON RD,0,
39.916702,0,3239,-82.903389,REFWEYE,,,,REFUGEE RD & WEYBURN RD,0,
40.059393,0,5955,-82.952195,MORCLEE,,,,MORSE RD & CLEVELAND AVE,0,
39.943714,0,2756,-82.975339,WHIOPPE,,,,E WHITTIER ST & CARPENTER ST,0,
40.012913,0,4075,-82.961409,JOYHUDN,,,,JOYCE AVE & E HUDSON ST,0,
39.992279,0,6000,-83.019341,MEDCCE,,,,MEDICAL CENTER DR & CANNON DR,0,
40.02563,0,7237,-83.083859,NOTKIOE,,,,NOTTINGHAM RD & KIOKA AVE,0,
39.935152,0,2154,-82.975271,FREGILW,,,,FREBIS AVE & GILBERT ST,0,
40.012798,0,4855,-82.96157,JOYHUDS,,,,JOYCE AVE & E HUDSON ST,0,
40.113712,0,7261,-83.012237,HUTHIGE,,,,HUTCHINSON AVE & HIGH CROSS BLVD,0,
39.882082,0,4638,-82.9985,OBESOUE,,,,OBETZ RD & SOUTHPOINT BLVD,0,
40.025712,0,3623,-83.08395,NOTKIOW,,,,NOTTINGHAM RD & KIOKA AVE,0,
39.935053,0,7286,-82.975162,FREGILE,,,,FREBIS AVE & GILBERT ST,0,
39.995308,0,1702,-83.014715,NEIOPPS,,,,NEIL AVE & W 11TH AVE,0,
39.962752,0,2026,-82.983762,OAKLESE,,,,OAK ST & LESTER DR,0,
40.095003,0,3991,-82.983349,AMBDRYN,,,,AMBLESIDE DR & DRYSDALE SQ S,0,
40.022238,0,4699,-82.95223,PERDENS,,,,PERDUE AVE & DENUNE AVE,0,
39.955909,0,2320,-82.889028,MAIKARW,,,,E MAIN ST & KARL ST,0,
40.024336,0,4453,-83.025947,OLERIVN,,,OLENTANGY RIVER RD & RIVERVIEW DR,OLENTANGY RIVER RD & RIVERVIEW,0,
40.020066,0,1117,-82.964835,CLELINN,,,,CLEVELAND AVE & LINDEN PL,0,
40.02901,0,5497,-83.117207,FIS369S,,,,3693 FISHINGER BLVD,0,
40.094648,0,3983,-82.983814,AMBDRYS,,,,AMBLESIDE DR & DRYSDALE SQ S,0,
40.021879,0,4698,-82.952105,PERDENN,,,,PERDUE AVE & DENUNE AVE,0,
39.915791,0,3236,-82.91472,BERRIDW,,,,WINCHESTER PIKE & BERWICK PARK AND RIDE,0,
39.947864,0,2700,-83.050629,SULNASW,,,,SULLIVANT AVE & NASHOBA AVE,0,
39.955762,0,2302,-82.889033,MAIKARE,,,,E MAIN ST & KARL ST,0,
39.89551,0,2996,-83.081867,PARBROW,,,,PARLIN DR & BROADWAY,0,
39.953327,0,4564,-83.037201,CENRICN,,,,S CENTRAL AVE & W RICH ST,0,
39.941361,0,2384,-83.052408,MOUBELW,,,,W MOUND ST & BELVIDERE AVE,0,
39.919375,0,4728,-82.896636,COUKIMWN,,,,COURTRIGHT RD & KIMBERLY DR W,0,
39.908535,0,2140,-82.957028,FAIFABN,,,,FAIRWOOD AVE & FABER AVE,0,
40.037462,0,1209,-83.017317,HIGGLENN,,,,N HIGH ST & GLENCOE RD,0,
39.998493,0,2619,-82.868421,HAMSWAS,,,,N HAMILTON RD & SWANSON,0,
39.977415,0,1407,-83.011463,BUTNEIEN,,,,BUTTLES AVE & NEIL AVE,0,
39.951655,0,2456,-83.019992,DAVCAMN,,,,S DAVIS AVE & CAMPBELL AVE,0,
39.908924,0,2128,-82.957155,FAIFABS,,,,FAIRWOOD AVE & FABER AVE,0,
39.895207,0,6968,-83.081367,PARBROE,,,,PARLIN DR & WILLOWOOD PL,0,
39.95294,0,4559,-83.037259,CENRICS,,,,S CENTRAL AVE & W RICH ST,0,
39.937466,0,7284,-82.990715,JAEGATN,,,,JAEGER ST & E GATES ST,0,
39.977398,0,6035,-83.010648,BUTNEIEF,,,,BUTTLES AVE & NEIL AVE,0,
40.031386,0,7364,-82.865593,HAM559S,,,,559 N HAMILTON RD,0,
40.047157,0,3777,-82.955806,CLEORMN,,,,CLEVELAND AVE & ORMOND AVE,0,
40.051973,0,7298,-83.000031,INDSCHN1,,,,INDIANOLA AVE & E SCHREYER PL,0,
39.987637,0,1523,-83.018613,5THPERW,,,,W 5TH AVE & PERRY ST,0,
39.929542,0,6454,-83.116394,GEOHALN,,,,GEORGESVILLE RD & HALL RD,0,
39.933384,0,2959,-83.046745,HAR111S,,,,1117 HARRISBURG PIKE,0,
39.929345,0,6453,-83.116753,GEOHALS,,,,GEORGESVILLE RD & HALL RD,0,
39.987561,0,1614,-83.019056,5THPERE,,,,W 5TH AVE & PERRY ST,0,
39.954708,0,3518,-82.831149,MAIIDLE,,,,E MAIN ST & IDLEWILD DR,0,
39.95676,0,2331,-82.918595,MAIEASW,,,,E MAIN ST & EASTMOOR BLVD,0,
40.04407,0,1453,-82.999992,INDGLEN,,,,INDIANOLA AVE & GLENMONT AVE,0,
40.046914,0,1836,-82.956311,CLEORMS,,,,CLEVELAND AVE & ORMOND AVE,0,
40.073001,0,5775,-83.137328,TUTWALE,,,TUTTLE CROSSING ENT 0 & TUTTLE CROSSING SVC 0,TUTTLE CROSSING WAL-MART,0,
39.948101,0,1994,-82.936901,LIVCOLW,,,,E LIVINGSTON AVE & COLLEGE AVE,0,
39.987386,0,3823,-83.108143,TRAWILW,,,,TRABUE RD & N WILSON RD,0,
39.95613,0,4572,-83.021096,TOWDAVE,,,,W TOWN ST & S DAVIS AVE,0,
40.02289,0,1574,-83.069173,RIDREDE,,,,RIDGECLIFF RD & REDDING RD,0,
39.873061,0,6281,-82.943452,GRO470SE,,,,4700 GROVEPORT RD,0,
39.986614,0,3735,-82.991823,5THFIEW,,,,E 5TH AVE & FIELDS AVE,0,
39.884826,0,4899,-82.952785,GROMARNW,,,,GROVEPORT RD & MARSHALL AVE,0,
39.947926,0,1933,-82.936419,LIVCOLE,,,,E LIVINGSTON AVE & COLLEGE AVE,0,
39.968207,0,5169,-82.827797,BRI622N,,,,622 BRICE RD,0,
39.962858,0,2056,-82.9837,OAKLESW,,,,OAK ST & LESTER DR,0,
39.956213,0,2369,-83.021285,TOWDAVW,,,,W TOWN ST & S DAVIS AVE,0,
40.023016,0,1105,-83.070025,RIDREDW,,,,RIDGECLIFF RD & REDDING RD,0,
39.956885,0,2333,-82.923679,MAIKENW,,,,E MAIN ST & KENWICK RD,0,
39.986515,0,3750,-82.992493,5THFIEE,,,,E 5TH AVE & FIELDS AVE,0,
39.977516,0,1319,-83.011616,BUTNEIWF,,,,BUTTLES AVE & NEIL AVE,0,
40.011141,0,1111,-82.968854,CLECORN,,,,CLEVELAND AVE & CORDELL AVE,0,
40.114206,0,3117,-82.927396,STACHES,,,,S STATE ST & CHERRINGTON RD,0,
39.968428,0,2175,-82.970117,LONOHIE,,,,E LONG ST & N OHIO AVE,0,
39.977494,0,6034,-83.010902,BUTNEIWN,,,,BUTTLES AVE & NEIL AVE,0,
39.957893,0,7165,-82.996855,RIC3RDW,,,,E RICH ST & S 3RD ST,0,
40.113928,0,3101,-82.927039,STACHEN,,,,S STATE ST & CHERRINGTON RD,0,
39.977031,0,5362,-83.083851,HAGELS,,,,N HAGUE AVE & EL PASO DR,0,
39.968598,0,2194,-82.969805,LONOHIW,,,,E LONG ST & N OHIO AVE,0,
40.010981,0,1144,-82.969128,CLECORS,,,,CLEVELAND AVE & CORDELL AVE,0,
40.013624,0,5904,-83.153195,HILSPRN,,,,HILLIARD ROME RD & SPRINGDALE BLVD,0,
40.058154,0,5959,-82.919168,MORMOXW,,,,MORSE RD & MORSE CROSSING,0,
39.960189,0,2041,-82.952495,BRYFAIW,,,,BRYDEN RD & FAIRWOOD AVE,0,
40.111213,0,6787,-82.942931,COPSCHS,,,,COOPER RD & SCHROCK RD,0,
39.914381,0,6953,-82.856286,CHAFLEE,,,,CHATTERTON RD & FLEET RD,0,
39.943903,0,2748,-82.996285,WHIPEAE,,,,E WHITTIER ST & S PEARL ST,0,
40.140558,0,7482,-82.991316,SAN866N,,,,8664 SANCUS BLVD,0,
39.957103,0,2285,-82.937835,MAIDREE,,,,E MAIN ST & S DREXEL AVE,0,
40.005842,0,7102,-82.912296,STEJOHTN,,,,STELZER RD & JOHNSTOWN RD,0,
39.931704,0,2793,-82.984011,PARSOUS,,,,PARSONS AVE & SOUTHWOOD AVE,0,
39.981366,0,5449,-82.98052,2NDSAIE,,,,E 2ND AVE & SAINT CLAIR AVE,0,
39.982718,0,7348,-83.004548,2NDHIGW,,,,E 2ND AVE & N HIGH ST,0,
39.989626,0,1853,-82.930662,CAS10TS,,,,N CASSADY AVE & E 10TH AVE,0,
39.875947,0,3254,-82.946662,GROBRINW,,,,GROVEPORT RD & BRIDLEWOOD BLVD,0,
39.914497,0,6957,-82.85604,CHAFLEW,,,,CHATTERTON RD & FLEET RD,0,
39.957246,0,2338,-82.937909,MAIDREW,,,,E MAIN ST & S DREXEL AVE,0,
39.926796,0,6456,-83.117079,GEOPARS,,,GEORGESVILLE RD & WAL-MART EAST PATH,GEORGESVILLE RD & PARKWICK DR,0,
40.141848,0,6783,-82.98566,POLMAEW2,,,,POLARIS PKWY & POLARIS MALL 2,0,
39.951529,0,3904,-82.877422,HAMMOUS,,,,S HAMILTON RD & E MOUND ST,0,
40.014584,0,1553,-83.066663,TREFARN,,,,TREMONT RD & FARLEIGH RD,0,
39.966783,0,4162,-82.984528,LONJEFE,,,,E LONG ST & JEFFERSON AVE,0,
40.093387,0,3072,-82.950331,CLEBLEN1,,,,CLEVELAND AVE & BLENDON WOODS BLVD,0,
39.881304,0,2988,-83.072052,COLLEIW,,,,COLUMBUS ST & LEITHART DR,0,
40.040487,0,5670,-82.909405,STEMONN,,,,STELZER RD & MONTCLAIR DR,0,
39.974052,0,4182,-82.947352,NELOPPN1,,,,NELSON RD & MILLBROOK WAY,0,
40.06591,0,5311,-83.023431,GRA152E,,,,152 GRACELAND BLVD EAST,0,
39.968671,0,7231,-82.960041,LONPARE,,,,E LONG ST & PARKWOOD AVE,0,
39.94313,0,2722,-83.083533,SULBRIE,,,,SULLIVANT AVE & S BRINKER AVE,0,
40.040505,0,5684,-82.909683,STEMONS,,,,STELZER RD & MONTCLAIR DR,0,
39.994564,0,5367,-83.123717,WES199S,,,,1999 WESTBELT DR,0,
39.968223,0,7083,-83.007784,NATMCCBE,,,W NATIONWIDE BLVD & JOHN H MCCONNELL BLVD,NATIONWIDE BLVD & MCCONNELL BLVD,0,
40.016932,0,6565,-83.157119,HILTINS,,,,HILLIARD ROME RD & TINAPPLE RD,0,
39.943916,0,2775,-82.977244,WHIHEYW,,,,E WHITTIER ST & HEYL AVE,0,
40.029556,0,3825,-83.035658,NOREXIW,,,,W NORTH BROADWAY & RIVERSIDE EXIT,0,
40.093158,0,3036,-82.969652,SHAFAIN,,,,SHARON WOODS BLVD & FAIRHAVEN RD,0,
40.044614,0,5490,-83.157866,AVETAYS,,,,AVERY RD & TAYLOR LANE AVE,0,
40.064975,0,2229,-82.913568,SUNBERN,,,,SUNBURY RD & BERRYFIELD DR,0,
39.915202,0,7319,-82.858884,CHARENE,,,,CHATTERTON RD & RENFRO RD,0,
39.908928,0,6911,-82.928445,ALUGLNAN,,,,ALUM CREEK DR & GLENLEA DR,0,
40.107366,0,6095,-83.021019,WIL140E,,,,W WILSON BRIDGE RD & N HIGH ST,0,
40.06511,0,4034,-82.913606,SUNBERS,,,,SUNBURY RD & BERRYFIELD DR,0,
40.093266,0,3049,-82.969714,SHAFAIS,,,,SHARON WOODS BLVD & FAIRHAVEN RD,0,
39.948981,0,2737,-83.044132,SULHELE,,,,SULLIVANT AVE & HELEN ST,0,
40.05513,0,6538,-82.918584,MOR415S,,,4155 MORSE XING,4155 MORSE CROSSING,0,
39.918561,0,2838,-82.984792,PARGROVN,,,PARSONS AVE & GROVEPORT PIKE LOOP,PARSONS AVE & GROVEPORT RD,0,
39.92246,0,7290,-82.965475,LOCMARS2,,,,LOCKBOURNE RD & MARION RD,0,
39.979231,0,5428,-82.843003,BROTAYE,,,,E BROAD ST & TAYLOR STATION RD,0,
40.005699,0,7101,-82.912639,STEJOHTS,,,,STELZER RD & JOHNSTOWN RD,0,
39.950876,0,1916,-82.978123,LIV18TE,,,,E LIVINGSTON AVE & S 18TH ST,0,
40.001613,0,1343,-83.055291,NORGUINW,,,,NORTHWEST BLVD & GUILFORD RD,0,
40.048253,0,6871,-82.915625,EASEASPW,,,,EASTON WAY & EASTON SQUARE PL,0,
39.938547,0,54,-83.062991,MOUWAYW,,,,W MOUND ST & S WAYNE AVE,0,
39.966841,0,4342,-82.961349,BROTAYW,,,,E BROAD ST & TAYLOR AVE,0,
39.957468,0,2279,-82.954631,MAISEYE,,,,E MAIN ST & SEYMOUR AVE,0,
40.140737,0,7483,-82.99147,SAN868S,,,,8685 SANCUS BLVD,0,
40.135497,0,7487,-82.991934,SANLAZS,,,,SANCUS BLVD & LAZELLE RD,0,
39.961731,0,7341,-83.00062,HIGCAPS,,,,S HIGH ST & CAPITOL SQUARE,0,
39.888392,0,7031,-82.930373,ALUWILS,,,,ALUM CREEK DR & WILLIAMS RD,0,
40.030176,0,7307,-83.156978,CEMFRAW,,,,CEMETERY RD & FRANKLIN ST,0,
39.938401,0,2437,-83.062789,MOUWAYE,,,,W MOUND ST & S WAYNE AVE,0,
40.048003,0,6870,-82.915577,EASEASPE,,,,EASTON WAY & EASTON SQUARE PL,0,
39.967032,0,2482,-82.957875,BROWOOE,,,,E BROAD ST & WOODLAND AVE,0,
39.959762,0,2624,-83.021483,BRODAVW,,,,W BROAD ST & N DAVIS AVE,0,
40.010185,0,4856,-82.962398,JOYBLAS,,,,JOYCE AVE & E BLAKE AVE,0,
39.967222,0,2541,-82.957926,BROWOOW,,,,E BROAD ST & WOODLAND AVE,0,
40.013076,0,4862,-82.86236,ROCROCE,,,,ROCKY FORK BLVD & ROCKY FORK CT,0,
40.00959,0,1587,-83.069997,TREONAS,,,,TREMONT RD & ONANDAGA DR,0,
39.959611,0,2675,-83.021282,BRODAVE,,,,W BROAD ST & S DAVIS AVE,0,
39.978538,0,1306,-83.003938,HIGHUBS,,,,N HIGH ST & W HUBBARD AVE,0,
39.943343,0,2760,-82.967974,WHIWILE,,,,E WHITTIER ST & WILSON AVE,0,
39.94588,0,7306,-83.0612,SULWHEW1,,,,SULLIVANT AVE & S WHEATLAND AVE,0,
40.008286,0,6692,-83.014006,NEINORS,,,,NEIL AVE & NORTHWOOD AVE,0,
39.948717,0,1928,-82.951593,LIVBULE,,,,E LIVINGSTON AVE & BULEN AVE,0,
40.007188,0,6673,-83.014039,NEINORN,,,,NEIL AVE & W NORWICH AVE,0,
39.987292,0,6375,-82.897598,DSWROAS,,,DSW SERVICE RD,DSW WAREHOUSE ROANOKE ENTRANCE,0,
40.031912,0,3720,-82.977745,OAKHAME,,,,OAKLAND PARK AVE & HAMILTON AVE,0,
39.987022,0,7388,-83.107274,WILTRAS,,,,N WILSON RD & TRABUE RD,0,
39.964561,0,4124,-83.044936,MCK1600W,,,1600 MCKINLEY ADMIN OFFICE,MCKINLEY ADMIN OFFICE,0,
39.954304,0,2651,-83.085414,BROALGE,,,,W BROAD ST & S ALGONQUIN AVE,0,
40.007416,0,3780,-83.057299,LANBRAW,,,,W LANE AVE & BRANDON RD,0,
39.865878,0,1907,-82.924101,GROBIXSE,,,,GROVEPORT RD & BIXBY RD,0,
39.984557,0,7337,-83.033142,3RDPARE1,,,,W 3RD AVE & PARKWAY DR N,0,
40.056126,0,1271,-83.019942,HIGSHES,,,,N HIGH ST & SHEFFIELD RD,0,
39.99056,0,7023,-83.155509,TANSTES,,,,TANGLEWOOD PARK BLVD & STEFFI DR,0,
39.845808,0,3282,-82.828674,GROGENW,,,,GROVEPORT RD & GENDER RD,0,
40.052184,0,5672,-82.908782,STECOLN,,,385 STELZER RD & COLLIERY AVE,STELZER RD & COLLIERY AVE,0,
39.982018,0,2936,-83.050588,1STASHE,,,,W 1ST AVE & ASHLAND AVE,0,
39.986199,0,7210,-82.989092,CLE5THN1,,,,CLEVELAND AVE & E 5TH AVE,0,
40.009046,0,6429,-83.022875,OLEBORS,,,,OLENTANGY RIVER RD & BORROR DR,0,
39.956922,0,2288,-82.930727,MAIMONE,,,,E MAIN ST & MONTROSE AVE,0,
39.957904,0,2350,-82.969296,MAICHAW,,,,E MAIN ST & S CHAMPION AVE,0,
40.0516,0,7314,-82.976518,KARFERN1,,,,KARL RD & FERRIS RD,0,
40.031582,0,1446,-83.000921,INDNORN,,,INDIANOLA AVE & E NORTH BROADWAY,INDIANOLA AVE & E N BROADWAY,0,
40.101401,0,7185,-83.094153,DUBVILS,,,,DUBLIN CENTER DR & VILLAGE PKWY,0,
39.954424,0,4558,-83.036507,TOWBREW,,,,W TOWN ST & BREHL AVE,0,
40.055342,0,6705,-82.866635,MORSTONE,,,,MORSE RD & STONERIDGE DR,0,
39.947098,0,1986,-82.918575,LIVKENW,,,,E LIVINGSTON AVE & KENILWORTH PL,0,
40.050206,0,1216,-83.020081,HIGCOON,,,,N HIGH ST & E COOKE RD,0,
39.982754,0,5622,-82.81513,BROREYW,,,E BROAD ST & REYNOLDSBURG-NEW ALBANY RD,E BROAD ST & REYNOLDSBURG NEW ALBANY,0,
40.103554,0,1240,-83.017036,HIGHALN,,,,N HIGH ST & HALLIGAN AVE,0,
39.957753,0,2272,-82.969033,MAICHAE,,,,E MAIN ST & S CHAMPION AVE,0,
39.933129,0,2212,-82.992823,4THJENS,,,,S 4TH ST & E JENKINS AVE,0,
40.03106,0,1489,-83.001152,INDNORS,,,,INDIANOLA AVE & E NORTH BROADWAY,0,
40.121567,0,7219,-83.090343,SAWSUMS,,,,SAWMILL RD & SUMMER DR,0,
39.904467,0,3258,-82.966889,GROLOCSE,,,,GROVEPORT RD & LOCKBOURNE RD,0,
39.969376,0,3450,-82.992375,MOUGRANW,,,,MOUNT VERNON AVE & N GRANT AVE,0,
39.99231,0,4227,-83.014154,NEI8THS,,,,NEIL AVE & W 8TH AVE,0,
39.964424,0,5910,-83.00096,HIGGAYN,,,,N HIGH ST & E GAY ST,0,
40.049515,0,6643,-82.919931,MOREASN1,,,,MORSE CROSSING & EASTON WAY,0,
39.943203,0,3217,-82.844267,LIVBAIW,,,,E LIVINGSTON AVE & BAIRSFORD DR,0,
39.951418,0,2686,-82.877238,HAMSIMN,,,,S HAMILTON RD & SIMPSON DR,0,
39.948967,0,3866,-82.956645,LIVBERE,,,E LIVINGSTON AVE & BERKELEY RD,E LIVINGSTON AVE & BERKLEY RD,0,
39.992315,0,1706,-83.013973,NEI8THN,,,,NEIL AVE & W 8TH AVE,0,
39.957576,0,2344,-82.952676,MAIFAIW,,,,E MAIN ST & FAIRWOOD AVE,0,
39.925347,0,4975,-83.094138,GREOPPNW,,,,GREENOCK RD & GREENOCK CT,0,
39.943061,0,3189,-82.844026,LIVBAIE,,,,E LIVINGSTON AVE & BAIRSFORD DR,0,
39.877681,0,7042,-83.045615,PKWCTRS,,,PARKWAY CENTER & STRINGTOWN RD,PARKWAY CENTRE DR & STRINGTOWN RD,0,
39.945022,0,1952,-82.883296,LIVBURE,,,,E LIVINGSTON AVE & BURLINGTON AVE,0,
39.960537,0,2088,-82.970891,BRYOHIW,,,,BRYDEN RD & S OHIO AVE,0,
39.962503,0,3558,-82.969017,CHAOAKN,,,,S CHAMPION AVE & OAK ST,0,
39.982445,0,5859,-83.134736,TRA510E,,,,5101 TRABUE RD,0,
40.088318,0,6570,-83.126155,BLA505W1,,,,5050 BLAZER PKWY,0,
40.060213,0,3455,-83.051327,GODCHEE,,,,GODOWN RD & CHEVIOT DR,0,
39.919457,0,4661,-82.965542,LOCREFN,,,,LOCKBOURNE RD & REFUGEE RD,0,
40.064595,0,4784,-83.056975,GODBRAS,,,,GODOWN RD & BRACKEN HOUSE CT,0,
39.967682,0,5806,-82.953683,BROBRUNW,,,,E BROAD ST & BRUNSON AVE,0,
39.985887,0,5281,-83.11316,TRAARLE,,,,TRABUE RD & ARLINGATE LN,0,
39.967669,0,1411,-83.009793,NEINATS,,,,NEIL AVE & NATIONWIDE BLVD,0,
39.994194,0,3810,-83.011149,10THIGLE,,,,W 10TH AVE & HIGHLAND ST,0,
40.056919,0,3062,-82.962509,WALFITS,,,,WALFORD ST & FITZROY DR,0,
40.02034,0,1140,-82.965028,CLEABES,,,,CLEVELAND AVE & ABERDEEN AVE,0,
40.017099,0,6521,-83.156972,HILTINAN,,,,HILLIARD ROME RD & TINAPPLE RD,0,
39.996692,0,4682,-82.978646,CLE13TS,,,,CLEVELAND AVE & E 13TH AVE,0,
40.126917,0,7470,-82.994002,SANPARS,,,SANCUS BLVD & CEDAR TRACE BLVD,SANCUS BLVD & PARK RD,0,
39.872907,0,3253,-82.94308,GRO470NW,,,,4700 GROVEPORT RD,0,
39.939865,0,2955,-83.040387,HARGARS,,,,HARRISBURG PIKE & GARLING AVE,0,
39.989877,0,1338,-83.064345,RIV5THS,,,,RIVERSIDE DR & W 5TH AVE,0,
40.085301,0,7377,-82.747519,SMI900W1,,,9000 SMITH'S MILL RD,9000 SMITHS MILL RD,0,
40.000161,0,1104,-82.975688,CLE17TN,,,,CLEVELAND AVE & E 17TH AVE,0,
40.057752,0,1771,-82.976375,KARNORN,,,,KARL RD & NORTHLAND PARK AVE,0,
39.952862,0,2371,-83.021673,SOUSULS,,,,S SOUDER AVE & SULLIVANT AVE,0,
40.102009,0,7184,-83.092642,VILSAWW,,,,VILLAGE PKWY & SAWMILL RD,0,
39.910792,0,2243,-82.99525,HIGDELN,,,,S HIGH ST & DELRAY RD,0,
40.011426,0,1681,-82.946647,MOCCENW,,,,MOCK RD & CENTURY DR,0,
40.076398,0,6202,-83.129248,TUTBRAE,,,TUTTLE CROSSING BLVD & BRADENTON AVE,TUTTLE CROSSING & BRADENTON AVE,0,
39.99993,0,1151,-82.976077,CLE17TS,,,,CLEVELAND AVE & E 17TH AVE,0,
39.984278,0,4545,-82.84329,TAYWESS,,,,TAYLOR STATION RD & WESTBOURNE AVE,0,
40.126998,0,7469,-82.993777,SANPARN,,,,SANCUS BLVD & PARK RD,0,
39.951533,0,1915,-82.980465,LIVANNE,,,,E LIVINGSTON AVE & ANN ST,0,
39.939746,0,3011,-83.040263,HARGARN,,,,HARRISBURG PIKE & GARLING AVE,0,
39.97251,0,4770,-82.913411,JAMBRON,,,,N JAMES RD & E BROAD ST,0,
39.981228,0,6858,-82.826457,BROBRICE,,,,E BROAD ST & N BRICE RD,0,
40.037304,0,7363,-82.86518,HAMJONS,,,,N HAMILTON RD & E JOHNSTOWN RD,0,
40.06658,0,3088,-82.952353,CLENORWN,,,,CLEVELAND AVE & NORTHWOLD RD,0,
39.913379,0,2221,-82.995494,HIGDERS,,,,S HIGH ST & DERING AVE,0,
39.971375,0,7339,-82.97803,MOUMONW,,,,MT VERNON AVE & N MONROE AVE,0,
39.955052,0,3709,-82.860003,MAIFOUW,,,,E MAIN ST & FOUNTAIN LN,0,
39.912721,0,4300,-82.995249,HIGDERN,,,,S HIGH ST & DERING AVE,0,
39.983696,0,4392,-82.870059,HAMWOOS,,,,N HAMILTON RD & WOODCLIFF DR,0,
40.029275,0,4417,-83.029277,OLE3420N,,,,3420 OLENTANGY RIVER RD,0,
39.954211,0,6370,-82.998989,HIGFULN,,,,S HIGH ST & FULTON ST,0,
40.068606,0,1224,-83.019063,HIG522N,,,,5220 N HIGH ST,0,
40.023484,0,3684,-82.981908,WEBMCGE,,,,E WEBER RD & MCGUFFEY RD,0,
39.917311,0,4506,-82.914606,REFWINE,,,,REFUGEE RD & WINCHESTER PIKE,0,
39.947053,0,1941,-82.919713,LIVWELE,,,,E LIVINGSTON AVE & WELLESLEY RD,0,
39.99602,0,1188,-83.007178,HIGCHIN,,,,N HIGH ST & CHITTENDEN AVE,0,
39.965977,0,4173,-82.998759,3RDSPRS,,,,N 3RD ST & E SPRING ST,0,
39.91742,0,6956,-82.913441,REFWINW,,,,REFUGEE RD & WINCHESTER PIKE,0,
40.023556,0,3694,-82.982261,WEBMCGW,,,,E WEBER RD & MCGUFFEY RD,0,
39.953112,0,4282,-83.109579,BROGEOE,,,,W BROAD ST & GEORGESVILLE RD,0,
39.995901,0,1297,-83.007325,HIGCHIS,,,,N HIGH ST & CHITTENDEN AVE,0,
40.077578,0,3028,-82.965691,TAMMAPNW,,,,TAMARACK CIR N & MAPLE CANYON,0,
40.014628,0,6779,-83.022612,OLEBURS,,,,OLENTANGY RIVER RD & BURNBRAE AVE,0,
39.944118,0,2727,-83.07001,SULOGDE,,,,SULLIVANT AVE & S OGDEN AVE,0,
40.026751,0,4737,-82.944826,AGLBRIWW,,,,AGLER RD & BRIDGEWALK ST,0,
40.000452,0,4905,-82.979485,17THAME,,,,E 17TH AVE & HAMILTON AVE,0,
40.048284,0,7075,-83.15339,DAVCRYSW,,,,DAVIDSON RD & CRYSTAL LAKE DR,0,
40.027433,0,1136,-82.964417,CLEWELS,,,,CLEVELAND AVE & WELDON AVE,0,
39.939765,0,7036,-83.013937,GRENHARW,,,,GREENLAWN AVE & HARMON AVE,0,
40.032534,0,4376,-82.889657,MCCSTYE,,,,MCCUTCHEON RD & STYGLER RD N,0,
40.058736,0,1270,-83.019785,HIGBEES,,,,N HIGH ST & W BEECHWOLD BLVD,0,
40.014478,0,4350,-83.022271,OLEBURN,,,2620 OLENTANGY RIVER RD & BURNBRAE AVE,OLENTANGY RIVER RD & BURNBRAE AVE,0,
39.982129,0,2935,-83.053101,1STWESE,,,,W 1ST AVE & WESTWOOD AVE,0,
39.905666,0,2224,-82.995471,HIGALCS,,,,S HIGH ST & W ALCOTT RD,0,
39.924833,0,4846,-82.898862,COUOAKS,,,,COURTRIGHT RD & OAKCREST RD,0,
39.874396,0,6938,-82.881694,HOMO4615,,,4615 HOMER OHIO LN & HAMILTON RD,4615 HOMER OHIO LN,0,
39.924797,0,4730,-82.898696,COUOAKN,,,,COURTRIGHT RD & OAKCREST RD,0,
40.099024,0,1238,-83.01732,HIGLARN,,,,N HIGH ST & LARRIMER AVE,0,
39.905892,0,2240,-82.995237,HIGALCN,,,S HIGH ST & W ALCOTT RD,S HIGH ST & E ALCOTT RD,0,
40.064002,0,5751,-83.062532,BETPORW,,,,BETHEL RD & PORTLAND ST,0,
40.103717,0,5248,-83.061671,SNODONE,,,,SNOUFFER RD & DONAHUE CT,0,
39.982288,0,2920,-83.054016,1STGLEW,,,,W 1ST AVE & GLENN AVE,0,
39.980278,0,1692,-83.011604,NEI1STN,,,,NEIL AVE & W 1ST AVE,0,
39.947241,0,2203,-82.997858,HIGFRANS,,,,S HIGH ST & W FRANKFORT ST,0,
39.972568,0,1676,-82.971234,MOU22NW,,,,MOUNT VERNON AVE & N 22ND ST,0,
39.961191,0,5416,-83.022694,SOUSCON,,,,N SOUDER AVE & SCOTT ST,0,
39.957929,0,2351,-82.970702,MAIOHIW,,,,E MAIN ST & S OHIO AVE,0,
39.961058,0,5417,-83.022784,SOUSCOS,,,,N SOUDER AVE & SCOTT ST,0,
40.013392,0,4861,-82.866191,ROCHAME,,,,ROCKY FORK BLVD & N HAMILTON RD,0,
39.899293,0,1312,-83.079356,BRO1STN,,,,BROADWAY & 1ST AVE,0,
39.946528,0,2715,-83.083846,WICBRIW,,,,WICKLOW RD & S BRINKER AVE,0,
40.063794,0,5772,-83.061802,BETPORE,,,,BETHEL RD & PORTLAND ST,0,
39.964363,0,4142,-82.981014,BROPARSE,,,,E BROAD ST & PARSONS AVE,0,
39.972486,0,1631,-82.971179,MOU22NE,,,,MOUNT VERNON AVE & N 22ND ST,0,
39.842888,0,7438,-82.929377,ROH283E,,,,2830 ROHR RD,0,
40.035212,0,1791,-82.989428,MAIURAS,,,,MAIZE RD & URANA AVE,0,
39.973218,0,2525,-82.902787,BROMAPW,,,,E BROAD ST & MAPLEWOOD AVE,0,
40.00081,0,4580,-83.114801,WILVENN,,,,WILSON RD & VENTURE CT,0,
39.968627,0,2137,-82.993035,NAG6THE,,,289 E NAGHTEN ST & N 6TH ST,E NAGHTEN ST & N 6TH ST,0,
40.010888,0,1499,-83.000494,SUMMAYS,,,,SUMMIT ST & E MAYNARD AVE,0,
39.957399,0,2280,-82.951334,MAIBULE,,,,E MAIN ST & BULEN AVE,0,
40.066202,0,3022,-82.958295,NORTAYN,,,,NORTHTOWNE BLVD & TAYMOUTH RD,0,
40.094846,0,5021,-83.003683,PROPITN,,,,PROPRIETORS RD & PITTSFIELD DR,0,
40.09519,0,5044,-83.003765,PROPITS,,,,PROPRIETORS RD & PITTSFIELD DR,0,
39.936487,0,2555,-83.089946,DEM851S,,,,851 DEMOREST RD,0,
39.958884,0,6398,-83.001707,FROTOWN,,,,S FRONT ST & W TOWN ST,0,
39.969562,0,2558,-82.875663,HAMSAIS,,,,S HAMILTON RD & SAINT ANN LN,0,
40.059919,0,1767,-82.987459,MAIMORS,,,,MAIZE RD & MORSE RD,0,
39.916746,0,2123,-82.965949,LOC234S,,,,2341 LOCKBOURNE RD,0,
39.956876,0,1347,-82.992364,MAI5THE,,,,E MAIN ST & S 5TH ST,0,
40.093165,0,3079,-82.950543,CLELAUS,,,,CLEVELAND AVE & LAURELWOOD DR,0,
39.968942,0,3107,-82.981928,HAMSPRN,,,,HAMILTON AVE & E SPRING ST,0,
39.984044,0,1325,-83.019399,3RDPERW,,,,W 3RD AVE & PERRY ST,0,
39.918919,0,4644,-82.965769,LOCBUCS,,,,LOCKBOURNE RD & BUCKEYE PARK RD,0,
39.963875,0,7510,-83.041242,MCKMCKW,,,MCKINLEY AVE & MCKINLEY GARAGE PATH,MCKINLEY AVE & MCKINLEY TRANSPORTATION,0,
39.943636,0,2773,-82.971726,WHIOHIW,,,,E WHITTIER ST & S OHIO AVE,0,
39.981814,0,5443,-82.988842,2NDCLEW,,,,E 2ND AVE & CLEVELAND AVE,0,
40.044445,0,1759,-82.988551,MAINORN,,,,MAIZE RD & NORRIS DR,0,
39.966352,0,2544,-82.96567,BROWINW,,,,E BROAD ST & WINNER AVE,0,
39.965974,0,2545,-82.969109,BROGOVW,,,,E BROAD ST & GOVERNOR PL,0,
40.083259,0,5709,-83.049785,LINSEDS,,,,LINWORTH RD & SEDGWICK RD,0,
39.955452,0,4554,-83.027833,TOWDAKW,,,,W TOWN ST & DAKOTA AVE,0,
40.083407,0,3500,-83.049705,LINSEDN,,,,LINWORTH RD & SEDGWICK RD,0,
39.985567,0,3747,-82.947427,SUN5THS,,,,SUNBURY RD & E 5TH AVE,0,
39.844589,0,6465,-82.81438,GROCONW,,,GROVEPORT PIKE & COVENANT WAY,GROVEPORT RD & COVENANT WAY,0,
40.063443,0,3061,-82.959885,NOR460S,,,,4600 NORTHTOWNE BLVD,0,
40.014602,0,3644,-82.987502,HUDAZEW,,,,E HUDSON ST & AZELDA AVE,0,
39.915489,0,3245,-82.862542,CHANOEE,,,,CHATTERTON RD & NOE BIXBY RD,0,
39.949748,0,2008,-82.970345,LIVCHAW,,,,E LIVINGSTON AVE & S CHAMPION AVE,0,
40.103383,0,5250,-83.048988,SNOHICE,,,,SNOUFFER RD & HICKORY GROVE CT,0,
39.988226,0,1527,-83.032033,5THHESW,,,,W 5TH AVE & HESS ST,0,
39.981815,0,7025,-83.146575,RENRTAW,,,,RENNER RD & RENTRA DR,0,
39.939408,0,2405,-83.100338,EAKMAUW,,,,EAKIN RD & MAURINE DR,0,
39.94844,0,4833,-82.915648,JAMBROS1,,,,S JAMES RD & BROWNLEE AVE,0,
39.957625,0,5180,-82.82797,BRIOPPS,,,,BRICE RD & PORTSMOUTH DR,0,
39.924943,0,2215,-82.993457,4THREES,,,,S 4TH ST & REEB AVE,0,
39.981711,0,7026,-83.146504,RENRTAE,,,,RENNER RD & RENTRA DR,0,
39.964733,0,1167,-82.977962,BRODOUE,,,,E BROAD ST & S DOUGLAS ST,0,
39.983684,0,1324,-83.016798,MIC3RDN,,,,MICHIGAN AVE & W 3RD AVE,0,
40.032687,0,4375,-82.893459,MCCLANE,,,,MCCUTCHEON RD & LANCEWOOD DR,0,
39.964548,0,4156,-83.003909,LONLUDE2,,,W LONG ST & N LUDLOW ST,W LONG ST & LUDLOW ST,0,
39.947838,0,1991,-82.932096,LIVMONW,,,,E LIVINGSTON AVE & MONTROSE AVE,0,
39.963609,0,4140,-82.987425,BROWASAE,,,E BROAD ST & N WASHINGTON AVE,E BROAD ST & S WASHINGTON AVE,0,
39.976044,0,1408,-83.010961,NEICOLS,,,,NEIL AVE & COLLINS AVE,0,
39.919524,0,2798,-82.984892,PARGROS,,,,PARSONS AVE & GROVEPORT RD,0,
40.037045,0,1804,-82.977859,KARCARS,,,,KARL RD & CAROLYN AVE,0,
40.029763,0,7311,-83.168345,380VETS,,,,3800 VETERANS MEMORIAL DR,0,
39.91735,0,4660,-82.965736,LOC230N,,,,2300 LOCKBOURNE RD,0,
39.976196,0,1318,-83.010772,NEICOLN,,,,NEIL AVE & COLLINS AVE,0,
39.963836,0,6385,-82.987493,BROWASAW,,,,E BROAD ST & N WASHINGTON AVE,0,
39.977563,0,1171,-82.860342,BROCARE,,,,E BROAD ST & CARDINAL PARK DR,0,
40.011981,0,5678,-82.929327,CASHUDS,,,,N CASSADY AVE & E HUDSON ST,0,
39.992087,0,3179,-82.930414,CASKENS,,,,N CASSADY AVE & KENILWORTH RD,0,
40.080315,0,4033,-83.006901,PARANDW,,,,PARK BLVD & ANDOVER ST,0,
40.103409,0,1245,-83.028283,RIEWHIS,,,,RIEBER ST & WHITNEY AVE,0,
40.141672,0,6781,-82.97751,POLLYRW,,,,POLARIS PKWY & LYRA DR,0,
39.996922,0,3812,-83.008195,12THIGW,,,,W 12TH AVE & N HIGH ST,0,
39.966483,0,4161,-82.987293,LONWASE,,,,E LONG ST & N WASHINGTON AVE,0,
39.948517,0,3574,-82.97164,OHISYCS,,,,S OHIO AVE & E SYCAMORE ST,0,
40.064991,0,3964,-82.976928,KARREDN,,,,KARL RD & RED ROBIN RD,0,
39.869524,0,3261,-82.939002,GROFRUSE,,,,GROVEPORT RD & FRUSTA DR,0,
40.074223,0,3057,-82.963532,NORFLES,,,,NORTHTOWNE BLVD & FLEETWOOD DR,0,
39.950827,0,4929,-82.977497,LIV18TW,,,,E LIVINGSTON AVE & S 18TH ST,0,
40.019152,0,2889,-83.05304,ZOLMOUE1,,,,ZOLLINGER RD & MOUNT HOLYOKE RD,0,
39.983779,0,3592,-83.012924,3RDNEIW,,,,W 3RD AVE & NEIL AVE,0,
39.991299,0,2880,-83.040489,NORKINN,,,,NORTHWEST BLVD & KING AVE,0,
39.976363,0,2515,-82.872891,BROMIDCW,,,,E BROAD ST & MIDCLIFF DR,0,
39.989416,0,1756,-83.060659,5THARLE,,,,W 5TH AVE & ARLINGTON AVE,0,
40.119724,0,5243,-83.067871,SMOSUTS,,,,SMOKY ROW RD & SUTTER PKWY,0,
40.120295,0,4401,-83.06786,SMOSUTN,,,,SMOKY ROW RD & SUTTER PKWY,0,
39.989567,0,2926,-83.06112,5THARLW,,,,W 5TH AVE & ARLINGTON AVE,0,
40.0403,0,1278,-83.018287,HIGAMAS,,,,N HIGH ST & AMAZON PL,0,
39.955138,0,2459,-83.019531,RICGREE,,,,W RICH ST & S GREEN ST,0,
39.952464,0,1911,-82.990578,LIV6THE,,,,E LIVINGSTON AVE & S 6TH ST,0,
40.019341,0,1370,-83.072431,ZOLMOUE,,,,ZOLLINGER RD & MOUNTVIEW RD,0,
40.13268,0,7226,-83.080143,SUMROSE,,,,SUMMIT VIEW RD & ROSCOE PL,0,
39.853868,0,7445,-82.925428,CEN536S,,,TOY RD,5360 CENTERPOINT DR,0,
40.059715,0,5958,-82.957275,MORMALE,,,,MORSE RD & MALIN ST,0,
39.946752,0,2144,-83.112011,LINGEOW,,,,LINCOLN PARK CT & GEORGESVILLE RD,0,
39.953029,0,2687,-83.022953,SULMARTW,,,,SULLIVANT AVE & MARTIN AVE,0,
39.960142,0,2676,-83.016846,BROSKIE,,,,W BROAD ST & S SKIDMORE ST,0,
39.985953,0,4065,-82.978946,5THSAIE,,,,E 5TH AVE & SAINT CLAIR AVE,0,
40.003876,0,7161,-83.012854,WOOBOYE,,,,W WOODRUFF AVE & BOYD LABORATORY,0,
39.993087,0,1423,-82.999114,4TH9THN,,,,N 4TH ST & E 9TH AVE,0,
39.957856,0,2349,-82.966461,MAIWILW,,,,E MAIN ST & WILSON AVE,0,
40.028941,0,1490,-83.001328,INDWALS,,,,INDIANOLA AVE & WALHALLA RD,0,
40.00637,0,7278,-82.979556,HAM24TS,,,,HAMILTON AVE & E 24TH AVE,0,
39.835396,0,7436,-82.924636,POR638S,,,,6380 PORT RD,0,
40.006579,0,7277,-82.979381,HAM24TN,,,,HAMILTON AVE & E 24TH AVE,0,
39.96035,0,4154,-83.016586,BROSKIW,,,,W BROAD ST & N SKIDMORE ST,0,
39.933184,0,3590,-82.942166,ALUFRES,,,,ALUM CREEK DR & FREBIS AVE,0,
39.94111,0,3578,-82.972184,OHISTES,,,,S OHIO AVE & STEWART AVE,0,
39.962448,0,2046,-82.960713,OAKMILW,,,,OAK ST & MILLER AVE,0,
39.986147,0,3307,-82.979985,5THSAIW,,,,E 5TH AVE & SAINT CLAIR AVE,0,
40.038868,0,1450,-83.000428,INDFALN,,,,INDIANOLA AVE & FALLIS RD,0,
39.955496,0,2662,-83.060658,BROHIGE,,,,W BROAD ST & S HIGHLAND AVE,0,
39.978877,0,6527,-82.812502,LAN135S,,,LANCASTER AVE & BLACKLICK XING,LANCASTER AVE & ALEXANDER CT,0,
39.965307,0,4158,-82.996985,LON4THE,,,,E LONG ST & N 4TH ST,0,
39.883171,0,7312,-83.000207,HIGBOBN,,,,S HIGH ST & BOB EVANS,0,
39.964009,0,4113,-82.998381,3RDGAYS,,,,N 3RD ST & E GAY ST,0,
39.941826,0,1385,-82.99657,HIGSTEN,,,,S HIGH ST & STEWART AVE,0,
39.971845,0,7535,-82.915639,BROLOWW,,,,E BROAD ST & LOWELL RD,0,
39.97924,0,4574,-82.944547,NEL520N,,,,520 N NELSON RD,0,
39.987091,0,5702,-82.913915,STE750N,,,,750 STELZER RD,0,
39.972994,0,4096,-83.002822,HIGSWANS,,,,N HIGH ST & SWAN ST,0,
40.064626,0,5224,-83.0817,BETCOAW,,,,BETHEL RD & COACHMAN RD,0,
39.970682,0,7394,-83.097378,WILLINN,,,,N WILSON RD & LINDENDALE DR,0,
39.98035,0,6383,-82.834628,BROMCNE,,,,E BROAD ST & MCNAUGHTEN RD,0,
40.089445,0,6839,-82.991781,BOASHAN,,,,BOARDWALK ST & SHAPTER AVE,0,
39.942096,0,2206,-82.996857,HIGSTES,,,,S HIGH ST & STEWART AVE,0,
40.075564,0,3056,-82.965479,TAMNORE,,,,TAMARACK CIR S & NORTHTOWNE BLVD,0,
39.982279,0,6528,-82.817147,BROBLAE,,,,E BROAD ST & BLACKLICK XING,0,
39.934949,0,2251,-82.992576,4THMOLN,,,,S 4TH ST & E MOLER ST,0,
40.141234,0,6278,-82.984434,POL131E,,,,1319 POLARIS PKWY,0,
40.059962,0,5957,-82.958103,MORMALW,,,,MORSE RD & MALIN ST,0,
40.058999,0,5954,-82.943842,MORCHEE,,,,MORSE RD & CHESFORD RD,0,
40.010403,0,4074,-82.962166,JOYBLAN,,,,JOYCE AVE & E BLAKE AVE,0,
40.056689,0,7276,-82.987743,MAISHAS1,,,,MAIZE RD & SHANLEY DR,0,
39.934918,0,2211,-82.992696,4THMOLS,,,,S 4TH ST & E MOLER ST,0,
40.042095,0,6609,-82.988884,MAIBLES,,,,MAIZE RD & BLENHEIM RD,0,
40.010356,0,1887,-82.942072,BARBROS,,,,BAR HARBOR RD & BROCTON RD,0,
39.944223,0,2205,-82.997267,HIGWHIS,,,,S HIGH ST & W WHITTIER ST,0,
40.099232,0,4344,-83.017858,LARHIGW,,,,LARRIMER AVE & N HIGH ST,0,
39.946679,0,7186,-83.112436,LINGEOE,,,,LINCOLN PARK CT & GEORGESVILLE RD,0,
39.977718,0,7274,-82.914155,RUHKELW,,,,RUHL AVE & N KELLNER RD,0,
40.032603,0,4373,-82.898985,LINMCCN,,,,LINCOLNSHIRE RD & MCCUTCHEON RD,0,
40.001897,0,2858,-83.055686,NORGUISE,,,,NORTHWEST BLVD & GUILFORD RD,0,
39.954727,0,3492,-82.854714,MAIHEAE,,,,E MAIN ST & HEATHERWOOD DR,0,
39.947193,0,1940,-82.922477,LIVBROE1,,,,E LIVINGSTON AVE & BROWNING AVE,0,
39.979708,0,5361,-83.085398,HAGLAVS,,,,N HAGUE AVE & LA VISTA DR,0,
39.924069,0,3870,-82.99004,BARBRUW,,,,E BARTHMAN AVE & BRUCK ST,0,
39.940725,0,7035,-83.015124,HARGRES,,,,HARMON AVE & GREENLAWN AVE,0,
39.964839,0,2560,-82.876109,HAMETNS,,,,S HAMILTON RD & ETNA RD,0,
39.932542,0,5060,-82.838304,SCA577E,,,,5777 SCARBOROUGH BLVD,0,
39.974362,0,5308,-82.810478,LANANNN,,,,LANCASTER AVE & ANNE CT,0,
40.061622,0,1268,-83.019633,HIGJEFS,,,,N HIGH ST & E JEFFREY PL,0,
39.991213,0,1540,-83.060182,ARLCHEN,,,,ARLINGTON AVE & W CHELSEA RD,0,
40.042163,0,1483,-83.000314,INDNORTS,,,,INDIANOLA AVE & NORTHRIDGE RD,0,
39.991003,0,3803,-83.030254,KINDELE,,,,KING AVE & DELASHMUT AVE,0,
39.952583,0,3837,-83.13566,STUBROS,,,,STURBRIDGE RD & W BROAD ST,0,
40.009249,0,1291,-83.010043,HIGOAKS,,,,N HIGH ST & W OAKLAND AVE,0,
39.964279,0,1174,-82.875928,HAMETNN,,,,S HAMILTON RD & ETNA RD,0,
39.975709,0,2508,-82.877493,BROFAIE,,,,E BROAD ST & FAIRWAY BLVD,0,
40.024318,0,1202,-83.013843,HIGWEBN,,,,N HIGH ST & E WEBER RD,0,
39.979943,0,4213,-82.82302,ROSROSS,,,,ROSEHILL RD & ROSEBROOK LN,0,
40.093248,0,6608,-82.98077,AMBROTW,,,,AMBLESIDE DR & ROTHINGHAM LN,0,
40.000223,0,4070,-82.965291,JOY17TN,,,,JOYCE AVE & E 17TH AVE,0,
39.957971,0,2268,-82.979578,MAIALLE,,,,E MAIN ST & ALLEN AVE,0,
40.137446,0,6931,-82.947398,CLECTLRS,,,N CLEVELAND AVE & COUNTY LINE RD W,CLEVELAND AVE & COUNTY LINE RD,0,
39.99766,0,1897,-82.949488,BREORIS,,,,BRENTNELL AVE & ORIOLE PL,0,
40.131589,0,7489,-82.990933,SANBROS,,,,SANCUS BLVD & BROCKWELL DR,0,
40.019068,0,2890,-83.050764,ZOLHALE,,,,ZOLLINGER RD & HALSTEAD RD,0,
39.955109,0,2658,-83.068788,BROBURE,,,,W BROAD ST & S BURGESS AVE,0,
39.98355,0,1693,-83.01225,NEI3RDN,,,,NEIL AVE & W 3RD AVE,0,
40.062269,0,4624,-82.97084,TAM463N,,,,4630 TAMARACK BLVD,0,
40.000188,0,4901,-82.965468,JOY17TS,,,,JOYCE AVE & E 17TH AVE,0,
39.836984,0,7072,-82.933307,ALUSPIEN,,,,ALUM CREEK DR & SPIEGEL DR,0,
39.956,0,3850,-82.892226,MAILAMW,,,,E MAIN ST & LAMBY LN,0,
40.024689,0,1284,-83.014164,HIGWEBS,,,,N HIGH ST & W WEBER RD,0,
40.054298,0,5117,-82.968619,DREFENN,,,,DRESDEN ST & FENTON ST,0,
39.989553,0,1707,-83.013617,NEI7THS,,,,NEIL AVE & W 7TH AVE,0,
39.934931,0,7287,-82.972671,FREOHIE1,,,,FREBIS AVE & S OHIO AVE,0,
39.984872,0,1659,-82.92345,5THRARW,,,,E 5TH AVE & RARIG AVE,0,
40.032031,0,1750,-82.977934,OAKKARW,,,,OAKLAND PARK AVE & KARL RD,0,
39.939299,0,4733,-82.903942,ROSCOBW,,,,ROSWELL DR & COBURG RD,0,
40.021572,0,1201,-83.0131,HIGKELN,,,,N HIGH ST & E KELSO RD,0,
40.073191,0,7176,-83.092587,SAWWESN,,,,SAWMILL RD & WEST CASE RD,0,
39.983805,0,1401,-83.015952,3RDPENE,,,,W 3RD AVE & PENNSYLVANIA AVE,0,
40.073956,0,7177,-83.092811,SAWWESS,,,,SAWMILL RD & WEST CASE RD,0,
40.001395,0,1150,-82.975098,CLE18TS,,,,CLEVELAND AVE & E 18TH AVE,0,
39.984808,0,1649,-82.92403,5THRARE,,,,E 5TH AVE & RARIG AVE,0,
40.084198,0,3125,-82.951251,CLE161SF,,,,CLEVELAND AVE & STATE ROUTE 161,0,
39.961232,0,6195,-83.000248,MCKMONN,,,S HIGH ST & E STATE ST,MCKINLEY MONUMENT,0,
40.056872,0,6702,-82.897223,MORAPPE1,,,,MORSE RD & APPIAN WAY,0,
39.939181,0,4843,-82.903368,ROSCOBE,,,,ROSWELL DR & COBURG RD,0,
39.945166,0,2729,-83.064436,SULEURE,,,,SULLIVANT AVE & S EUREKA AVE,0,
40.014491,0,3602,-82.987129,HUDHIAE,,,,E HUDSON ST & HIAWATHA PARK DR,0,
40.054374,0,5116,-82.971202,SHA170E,,,,1707 SHANLEY DR,0,
39.991224,0,1186,-83.006225,HIGEUCN,,,,N HIGH ST & EUCLID AVE,0,
40.026107,0,3160,-82.923198,GATCHEN,,,,GATEWOOD RD & CHELFORD DR,0,
39.985638,0,2932,-83.058262,3RDCAME,,,,W 3RD AVE & CAMBRIDGE BLVD,0,
40.075722,0,4041,-83.001433,CHAINDE,,,,CHASE RD & INDIANOLA AVE,0,
40.016153,0,3742,-83.020927,DODENTE,,,,W DODRIDGE ST & CHEMICAL ABSTRACTS,0,
39.946517,0,1945,-82.910144,LIVZETE,,,,E LIVINGSTON AVE & ZETTLER RD,0,
40.011152,0,6686,-83.01348,NEIMAYS,,,NEIL AVE & W MAYNARD AVE,NEIL AVE & MAYNARD AVE,0,
40.001204,0,1545,-83.063641,ARLTEWN,,,,ARLINGTON AVE & TEWKSBURY RD,0,
39.962805,0,2900,-83.000871,HIGBROS,,,,N HIGH ST & W BROAD ST,0,
40.001287,0,1592,-83.063842,ARLTEWS,,,,ARLINGTON AVE & TEWKSBURY RD,0,
40.011214,0,6675,-83.013232,NEIMAYN,,,NEIL AVE & W MAYNARD AVE,NEIL AVE & MAYNARD AVE,0,
39.985756,0,2924,-83.058266,3RDCAMW,,,,W 3RD AVE & CAMBRIDGE BLVD,0,
39.946755,0,1984,-82.911858,LIVHAMW1,,,,E LIVINGSTON AVE & S HAMPTON RD,0,
39.837165,0,6884,-82.930211,SPIALU1E,,,,SPIEGEL DR & ALUM CREEK DR,0,
39.924354,0,2120,-82.965354,LOCREES,,,,LOCKBOURNE RD & REEB AVE,0,
40.026857,0,4738,-82.950146,AGLWOOE,,,,AGLER RD & WOODLAND AVE,0,
39.881886,0,6971,-83.089608,COLDULE,,,,COLUMBUS ST & DUDLEY AVE,0,
39.874489,0,6939,-82.881659,HOMO4600,,,4600 HOMER OHIO LN & HAMILTON RD,4600 HOMER OHIO LN,0,
40.066842,0,5769,-83.066896,DREREEW,,,,DREW AVE & REED RD,0,
40.011272,0,6093,-82.943124,MOC2501W,,,,2501 MOCK RD,0,
39.946312,0,1946,-82.906059,LIVBARE,,,,E LIVINGSTON AVE & BARNETT RD,0,
39.9768,0,5071,-82.946131,NELMARN,,,,N NELSON RD & MARYLAND AVE,0,
40.041043,0,1211,-83.018284,HIGACTN,,,,N HIGH ST & ACTON RD,0,
39.95763,0,3556,-82.969422,CHAMAIN,,,,S CHAMPION AVE & E MAIN ST,0,
40.068191,0,5815,-83.102219,HAY316W,,,,3166 HAYDEN RD,0,
39.899663,0,3255,-82.963047,GROCLANW,,,,GROVEPORT RD & CLARFIELD AVE,0,
40.003532,0,6485,-82.861858,MORTAYNW,,,MORRISON ROAD & TAYLOR ROAD,MORRISON RD & TAYLOR RD,0,
39.985588,0,5992,-83.073518,5THRUN1E,,,,W 5TH AVE & SEAPORT DR,0,
39.946455,0,1983,-82.906055,LIVBARW,,,,E LIVINGSTON AVE & BARNETT RD,0,
39.875718,0,6940,-82.879762,HOMO4800,,,,4800 HOMER OHIO LN,0,
40.089849,0,3050,-82.970197,SHADURS,,,,SHARON WOODS BLVD & DURBRIDGE RD,0,
40.112709,0,3076,-82.948918,CLECOPN,,,,S CLEVELAND AVE & COPELAND MILL RD,0,
39.990472,0,4550,-82.992125,FIECOTS,,,,1333 FIELDS AVE,0,
40.037463,0,1128,-82.96211,INNCLEW,,,,INNIS RD & CLEVELAND AVE,0,
39.939085,0,7194,-83.116183,SULCOUW1,,,,SULLIVANT AVE & COUNTRYBROOK E DR,0,
39.956666,0,36,-82.77903,HANMAIN,,,,HANSON ST & E MAIN ST,0,
39.98517,0,5283,-82.933824,5THNORE,,,,E 5TH AVE & NORTHVIEW AVE,0,
39.979393,0,6851,-82.963265,LEOTAYE1,,,VETERANS ADMIN LOOP,LEONARD AVE & TAYLOR AVE,0,
40.015428,0,3650,-83.004343,HUDDAYW,,,,E HUDSON ST & DAYTON AVE,0,
40.02152,0,7127,-83.027549,STADHARS,,,,STADIUM DR & HARLEY DR,0,
40.01986,0,3626,-83.083233,ZOLGLEE,,,,ZOLLINGER RD & GLENRICH PKWY,0,
40.093649,0,7370,-82.814469,WAL779W,,,,7795 WALTON PKWY,0,
39.939598,0,2439,-83.058527,MOUHIGE,,,,W MOUND ST & S HIGHLAND AVE,0,
40.004062,0,3776,-83.048082,NORCARN,,,,NORTH STAR RD & CARDIFF RD,0,
39.947523,0,1968,-82.867385,COUBEN1S,,,,COUNTRY CLUB RD & N BENSON DR,0,
39.962294,0,2044,-82.95506,OAKMORW,,,,OAK ST & MORRISON AVE,0,
40.041603,0,1748,-82.988754,MAINORTN,,,,MAIZE RD & NORTHRIDGE RD,0,
40.05243,0,1217,-83.019959,HIGSCHN,,,,N HIGH ST & E SCHREYER PL,0,
40.009737,0,4390,-82.867384,HAMROCSS,,,,N HAMILTON RD & ROCKY FORK DR S,0,
40.006711,0,3532,-83.024189,LANOLEW,,,,W LANE AVE & OLENTANGY RIVER RD,0,
40.004266,0,3793,-83.048196,NORCARS,,,,NORTH STAR RD & CARDIFF RD,0,
39.962188,0,2039,-82.954456,OAKMORE,,,,OAK ST & MORRISON AVE,0,
40.059899,0,5964,-82.961226,MORWALE,,,,MORSE RD & WALFORD ST,0,
39.941809,0,2954,-83.038887,HAR771S,,,,771 HARRISBURG PIKE,0,
40.03081,0,4889,-83.030394,NOROLEW,,,,W NORTH BROADWAY & OLENTANGY RIV RD,0,
40.086175,0,5078,-82.97638,GRANVLS,,,GRANVILLE CTR & 161 KARL SVC RD,GRANVILLE CENTRE,0,
39.952953,0,1960,-82.867238,COUMCAN,,,,COUNTRY CLUB RD & MCALLISTER AVE,0,
39.986331,0,3752,-82.988647,5THCLEE,,,,E 5TH AVE & CLEVELAND AVE,0,
40.006998,0,5240,-83.058049,NORLANNN,,,,NORTHWEST BLVD & W LANE AVE,0,
39.974056,0,4313,-82.947493,NELMILS,,,,N NELSON RD & MILLBROOK WAY,0,
40.030025,0,5734,-82.910419,STEMIDN,,,,STELZER RD & MIDDLEMORE DR,0,
40.096349,0,4207,-83.01748,HIGWORN,,,,N HIGH ST & WORTHINGTON GALENA RD,0,
40.123546,0,1926,-82.948111,CLEMAINN,,,,S CLEVELAND AVE & W MAIN ST,0,
39.956718,0,2291,-82.922844,MAIBROE,,,,E MAIN ST & S BROADLEIGH RD,0,
39.947672,0,2451,-83.02852,MOUGLENE,,,,W MOUND ST & GLENWOOD AVE,0,
39.963,0,2028,-82.978499,OAKMONE,,,,OAK ST & S MONROE AVE,0,
39.958121,0,2355,-82.978564,MAIMONW,,,,E MAIN ST & S MONROE AVE,0,
40.086306,0,6780,-83.126702,5100RN,,,5100 NATIONWIDE PARKCENTER SV CIR & DIRECTORS BLVD,5100 RINGS RD,0,
39.843312,0,7071,-82.935753,ALUROHS,,,,ALUM CREEK DR & ROHR RD,0,
40.051658,0,7358,-82.863738,HAMSTON,,,,N HAMILTON RD & STONERIDGE LN,0,
40.095437,0,1252,-83.017751,HIGWORS,,,,N HIGH ST & WORTHINGTON GALENA RD,0,
40.004176,0,3297,-83.153716,HILROBN,,,HILLIARD ROME RD & ROBERTS RD,HILLIARD ROME & ROBERTS RD,0,
40.014697,0,3600,-82.99201,HUDOPPE,,,,E HUDSON ST & HOMECROFT DR,0,
39.998218,0,3830,-83.034662,KENKINN,,,,KENNY RD & KINNEAR RD,0,
40.098294,0,1686,-82.950155,CLEHOMS,,,,CLEVELAND AVE & HOME ACRE DR,0,
40.003121,0,1344,-83.057064,NORBRANW,,,,NORTHWEST BLVD & BRANDON RD,0,
39.915223,0,3230,-82.873639,REFTENW,,,,REFUGEE RD & TENNYSON BLVD,0,
39.900438,0,5353,-82.88191,HAMWINN,,,,S HAMILTON RD & WINCHESTER PIKE,0,
40.014424,0,3642,-82.983516,HUDOPPW,,,,E HUDSON ST & GRASMERE AVE,0,
40.141668,0,6271,-82.966911,PULPOLS,,,,PULSAR PL & POLARIS PKWY,0,
40.097983,0,3074,-82.949969,CLEHOMN,,,,CLEVELAND AVE & HOME ACRE DR,0,
39.998303,0,3768,-83.034851,KENKINS,,,,KENNY RD & KINNEAR RD,0,
39.885607,0,5292,-83.002326,GRE375S,,,3755 GREAT SOUTHERN SERVICE RD,3755 GREAT SOUTHERN SVC RD,0,
40.008192,0,5839,-82.864954,MORWATSE,,,,MORRISON RD & WATERBURY CT,0,
40.061304,0,3454,-83.053138,GODLANSE,,,,GODOWN RD & LANGLAND DR,0,
40.092734,0,3097,-82.925389,WESPARIB,,,,WESTERVILLE RD & PARIS BLVD,0,
39.929639,0,2822,-82.983992,PARMORN,,,,PARSONS AVE & E MORRILL AVE,0,
39.965808,0,440,-83.002412,NORTER3,,,COTA NORTH TERMINAL ENTRANCE SVC & W SPRING ST,SPRING ST TERMINAL BAY 3,0,
39.943613,0,2757,-82.973459,WHI22NE,,,,E WHITTIER ST & S 22ND ST,0,
39.965381,0,2547,-82.9741,BRO20TW,,,,E BROAD ST & N 20TH ST,0,
40.105398,0,5979,-83.017174,HIGCARS,,,,N HIGH ST & CAREN AVE,0,
39.989626,0,5724,-82.869349,5THHAMSW,,,,E 5TH AVE & N HAMILTON RD,0,
40.034154,0,7500,-82.927993,MCCMCCW,,,MCCUTCHEON RD & MCCUTCHEON CROSSING DR,MCCUTCHEON RD & MCCUTCHEON PL,0,
39.965204,0,2476,-82.973972,BROHOFE,,,,E BROAD ST & HOFFMAN AVE,0,
40.146421,0,7476,-82.938409,POLAFRW,,,POLARIS PKWY & REPUBLIC AVE,POLARIS PKWY & AFRICA RD,0,
39.852557,0,7441,-82.943072,CRE320W,,,CREEKSIDE PKWY & TOY RD,3205 CREEKSIDE PKWY,0,
39.95381,0,4776,-82.915138,JAMMOUS,,,,S JAMES RD & E MOUND ST,0,
39.941991,0,3192,-82.830317,LIVBRIE,,,,E LIVINGSTON AVE & BRICE RD,0,
40.026338,0,5719,-83.091064,RIVNOTN,,,,RIVERSIDE DR & NOTTINGHAM RD,0,
40.00173,0,6695,-83.010684,COL17THS,,,,COLLEGE RD & 17TH AVE,0,
39.938458,0,3579,-82.972388,OHITHUS,,,,S OHIO AVE & THURMAN AVE,0,
40.01717,0,5411,-82.956122,PARMYRN,,,,PARKWOOD AVE & MYRTLE AVE,0,
40.060593,0,5968,-82.974714,MOR170W,,,,1700 MORSE RD,0,
39.916572,0,3233,-82.897403,REFCOUW,,,,REFUGEE RD & COURTRIGHT RD,0,
39.986356,0,6763,-82.950219,BRE5THN,,,,BRENTNELL AVE & 5TH AVE,0,
39.980449,0,7272,-82.916083,324ALLE,,,ALLEGHENY AVE & VIRGINIA LEE RD E,3243 ALLEGHENY AVE,0,
39.986355,0,6764,-82.950432,BRE5THS,,,,BRENTNELL AVE & 5TH AVE,0,
40.01633,0,5603,-82.956329,PARMYRS,,,,PARKWOOD AVE & MYRTLE AVE,0,
39.960646,0,4115,-82.99773,3RDSTAS,,,,S 3RD ST & E STATE ST,0,
39.916357,0,3067,-82.897176,REFCOUE,,,,REFUGEE RD & COURTRIGHT RD,0,
40.016961,0,1733,-82.981378,MCGBRIN,,,MCGUFFEY RD & REPUBLIC AVE,MCGUFFEY RD & BRIARWOOD AVE,0,
40.083415,0,4967,-82.941532,161NOAKE,,,STATE RTE 161 N SVC RD & GREAT WOODS BLVD,STATE ROUTE 161 & OAK KNOLL DR,0,
39.908832,0,2967,-83.071707,HARHYDS,,,,HARRISBURG PIKE & HYDE RD,0,
39.942963,0,4097,-82.841065,LIVQUAE,,,,E LIVINGSTON AVE & QUARRY RIDGE DR,0,
39.934365,0,3541,-82.958607,FREBERW,,,,FREBIS AVE & BERKELEY RD,0,
39.965157,0,4101,-83.001322,HIGLONS,,,N HIGH ST & E LONG ST,N HIGH ST & W LONG ST,0,
39.908845,0,2999,-83.071358,HARHYDN,,,,HARRISBURG PIKE & HYDE RD,0,
40.044539,0,1517,-82.958299,CLEPEGN,,,,CLEVELAND AVE & PEGG RD,0,
39.943153,0,1879,-82.841426,LIVQUAW,,,,E LIVINGSTON AVE & QUARRY RIDGE DR,0,
39.992844,0,5744,-83.027034,LEN2NDE,,,LENNOX BUS STOP SVC RD & LENNOX FRONT SERVICE RD,LENNOX BUS STOP SVC RD,0,
40.040292,0,3482,-83.050605,KENMCCS,,,,KENNY RD & MCCOY RD,0,
40.01696,0,1814,-82.981591,MCGBRIS,,,MCGUFFEY RD & REPUBLIC AVE,MCGUFFEY RD & BRIARWOOD AVE,0,
39.934236,0,3585,-82.958428,FREBERE,,,,FREBIS AVE & BERKELEY RD,0,
40.096374,0,3982,-82.982102,AMBKILS,,,,AMBLESIDE DR & KILDALE SQ S,0,
40.125049,0,3760,-82.954785,MAIMILW,,,,W MAIN ST & MILLFIELD AVE,0,
39.956474,0,2326,-82.908408,MAIWEYW,,,WEYANT LOOP SVC & E MAIN ST,E MAIN ST & S WEYANT AVE,0,
39.951837,0,4785,-82.915322,JAMASTS,,,,S JAMES RD & ASTOR AVE,0,
40.013338,0,1434,-82.997682,4THCLIN,,,,N 4TH ST & CLINTON ST,0,
40.066688,0,5810,-83.098068,HAY3011E,,,3011 HAYDEN RD & DONNYLANE BLVD,3011 HAYDEN RD,0,
40.124931,0,3737,-82.954836,MAIMILE,,,,W MAIN ST & MILLFIELD AVE,0,
39.951413,0,4764,-82.915201,JAMASTN,,,,S JAMES RD & ASTOR AVE,0,
39.956327,0,2296,-82.908654,MAIWEYE,,,,E MAIN ST & S WEYANT AVE,0,
39.945503,0,1950,-82.89169,LIVVILE,,,,E LIVINGSTON AVE & VILARDO LN,0,
40.001211,0,1153,-83.034392,KEN205N,,,,2050 KENNY RD,0,
39.843357,0,7073,-82.935423,ALUROHRN,,,,ALUM CREEK DR & ROHR RD,0,
39.943996,0,2755,-82.980743,WHIANNE,,,,E WHITTIER ST & ANN ST,0,
39.982279,0,1513,-83.00125,SUM2NDS,,,,SUMMIT ST & E 2ND AVE,0,
40.023715,0,3624,-83.084503,KIOSWAS,,,,KIOKA AVE & SWANSEA RD,0,
39.948836,0,1086,-82.951647,LIVBULW,,,,E LIVINGSTON AVE & BULEN AVE,0,
39.998105,0,1296,-83.00777,HIG13TS,,,,N HIGH ST & E 13TH AVE,0,
39.937623,0,3547,-82.970934,CHAMITN,,,,S CHAMPION AVE & E MITHOFF ST,0,
39.997729,0,1189,-83.007506,HIG13TN,,,,N HIGH ST & E 13TH AVE,0,
39.954999,0,2643,-83.074317,BROHAGW,,,,W BROAD ST & N HAGUE AVE,0,
40.011975,0,1730,-82.979106,HAMCLIN,,,,HAMILTON AVE & CLINTON ST,0,
39.912572,0,2124,-82.965531,KOEACRE,,,,1130 KOEBEL RD,0,
39.973811,0,1674,-82.96405,MOUGRAHW,,,,MOUNT VERNON AVE & GRAHAM ST,0,
40.062147,0,1464,-83.010863,MORELKW,,,,MORSE RD & ELKS DR,0,
39.942291,0,5461,-83.103337,SULEXCW,,,,SULLIVANT AVE & EXCHANGE DR,0,
39.959052,0,2626,-83.027266,BRORODW,,,,W BROAD ST & RODGERS AVE,0,
40.009305,0,5258,-82.859521,WATCODNE,,,,WATERBURY BLVD & CODRINGTON CIR,0,
40.059274,0,6462,-82.94954,MORGOLE,,,,MORSE RD & GOLDENGATE SQ N,0,
39.949081,0,1925,-82.958999,LIVKELE,,,,E LIVINGSTON AVE & KELTON AVE,0,
39.983549,0,4354,-82.869882,HAMWOON,,,,N HAMILTON RD & WOODCLIFF DR,0,
39.905847,0,6913,-82.928723,ALUWATN,,,,ALUM CREEK DR & WATKINS RD,0,
39.94863,0,6727,-82.99991,FROSYCS,,,,S FRONT ST & SYCAMORE ST,0,
39.942554,0,2444,-83.047538,MOUCLAE1,,,,W MOUND ST & CLARK AVE,0,
39.952057,0,5389,-83.110496,GEOBROS,,,,GEORGESVILLE RD & W BROAD ST,0,
40.003116,0,6486,-82.861522,MORTAYSE,,,MORRISON ROAD & TAYLOR ROAD,MORRISON RD & TAYLOR RD,0,
39.949246,0,1913,-82.959852,LIVKELW,,,,E LIVINGSTON AVE & KELTON AVE,0,
40.058887,0,6802,-82.941095,MOR2975E,,,,2975 MORSE RD,0,
39.954356,0,4565,-83.036073,TOWBREE,,,,W TOWN ST & BREHL AVE,0,
39.905601,0,6914,-82.928883,ALUWATS,,,,ALUM CREEK DR & WATKINS RD,0,
39.949203,0,4850,-82.999826,FROSYCN,,,,S FRONT ST & W SYCAMORE ST,0,
40.044376,0,1482,-83.000121,INDGLES,,,,INDIANOLA AVE & GLENMONT AVE,0,
39.877653,0,7086,-82.930975,ALULINN,,,4424 ALUM CREEK DR & LINDSAY RD,ALUM CREEK DR & LINDSAY RD,0,
40.049481,0,1274,-83.020322,HIGCOOS,,,,N HIGH ST & W COOKE RD,0,
40.068874,0,4577,-83.057412,LORGODW,,,,LORRAINE AVE & GODOWN RD,0,
39.932755,0,6066,-82.995814,HIGSOUWN,,,,S HIGH ST & SOUTHWOOD AVE,0,
39.955335,0,2660,-83.064223,BROWAYE,,,,W BROAD ST & N WAYNE AVE,0,
40.0272,0,4694,-82.956178,AGLLINW,,,,AGLER RD & LINVIEW AVE,0,
40.026515,0,1203,-83.014402,HIGPACN,,,,N HIGH ST & E PACEMONT RD,0,
39.854471,0,3283,-82.896659,MAITALE,,,,MAIN ST & TALLMAN ST,0,
40.068802,0,5220,-83.057197,LORGODE,,,,LORRAINE AVE & GODOWN RD,0,
39.968575,0,2539,-82.945477,BROMEAW,,,,E BROAD ST & MEADOW PARK AVE,0,
39.982598,0,1418,-82.998669,4TH2NDN,,,,N 4TH ST & E 2ND AVE,0,
39.963816,0,6041,-82.99634,4THATHN,,,,N 4TH ST & GAY ST,0,
39.967968,0,3396,-82.952482,MONBROS,,,,MONYPENNY AVE & E BROAD ST,0,
39.929662,0,2794,-82.984158,PARWELS,,,,PARSONS AVE & E WELCH AVE,0,
39.99593,0,5743,-83.014648,NEI11TN,,,,NEIL AVE & W 11TH AVE,0,
39.954822,0,2656,-83.074309,BROHAGE,,,,W BROAD ST & S HAGUE AVE,0,
39.957744,0,2347,-82.960549,MAIMILLW,,,,E MAIN ST & MILLER AVE,0,
39.955803,0,2637,-83.057783,BROMIDLW,,,,W BROAD ST & MIDLAND AVE,0,
39.986544,0,5993,-83.07257,5THRUN2E,,,,W 5TH AVE & RUNAWAY BAY DR,0,
39.957619,0,2276,-82.960893,MAIMILLE,,,,E MAIN ST & MILLER AVE,0,
39.980335,0,6891,-82.909917,VACLINIC,,,VA SVC RD & JAMES RD,VETERANS ADMINISTRATION CLINIC,0,
39.940766,0,6493,-82.9707,CHASTEN,,,,S CHAMPION AVE & STEWART AVE,0,
39.975829,0,2517,-82.877748,BROFAIW,,,,E BROAD ST & FAIRWAY BLVD,0,
40.025432,0,1491,-83.001615,INDMELS,,,,INDIANOLA AVE & MELROSE AVE,0,
39.946416,0,7302,-82.982888,PARCOLS,,,PARSONS AVE & E COLUMBUS ST,PARSONS AVE & COLUMBUS ST,0,
40.118426,0,7218,-83.090493,SAWHARS,,,,SAWMILL RD & HARD RD,0,
39.92646,0,3005,-83.056896,HAROCTN,,,,HARRISBURG PIKE & OCTOBER RIDGE DR,0,
39.885675,0,2974,-83.090658,BROBURS,,,,BROADWAY & BURR OAK DR,0,
40.117425,0,7217,-83.090299,SAWHARN,,,,SAWMILL RD & HARD RD,0,
39.990018,0,5703,-82.913654,STEOPPN,,,,STELZER RD & E 11TH AVE,0,
40.030992,0,6847,-83.14827,CEMBERLW,,,,CEMETERY RD & BERRY LEAF LN,0,
40.035553,0,1751,-82.977851,KARHUYN,,,,KARL RD & HUY RD,0,
40.024436,0,4060,-83.001357,WEBINDW,,,,E WEBER RD & INDIANOLA AVE,0,
40.006441,0,1147,-82.971912,CLE24TS,,,,CLEVELAND AVE & E 24TH AVE,0,
39.916344,0,3001,-83.064898,HARBIGN,,,,HARRISBURG PIKE & BIG RUN RD E,0,
39.962031,0,2561,-82.876337,HAMRICS,,,,S HAMILTON RD & RICKENBACKER AVE,0,
40.037275,0,7354,-82.864802,HAMJOHN,,,N HAMILTON RD & E JOHNSTOWN RD,HAMILTON RD & JOHNSTOWN RD,0,
39.87578,0,3259,-82.946663,GROBRISE,,,,GROVEPORT RD & BRIDLEWOOD BLVD,0,
40.09188,0,7345,-82.809299,WAL780W,,,,7800 WALTON PKWY,0,
40.023849,0,3696,-82.988235,WEBPONW,,,,E WEBER RD & PONTIAC ST,0,
39.961575,0,4151,-83.006876,BROWASBW,,,,W BROAD ST & WASHINGTON BLVD,0,
39.945194,0,2448,-83.037504,MOUCENE,,,,W MOUND ST & CENTRAL POINT,0,
40.023745,0,3682,-82.988382,WEBPONE,,,,E WEBER RD & PONTIAC ST,0,
39.944681,0,5160,-82.829547,BRICENN,,,,BRICE RD & CENTURY CITY S,0,
40.022961,0,1118,-82.964612,CLEWEBN,,,,CLEVELAND AVE & E WEBER RD,0,
39.864243,0,7454,-82.941822,FRUTRIS,,,FRUSTA DR & TIPPLE DR,FRUSTA DR & TRIPPLE DR,0,
39.953592,0,2018,-82.998468,FULHIGW,,,,E FULTON ST & S HIGH ST,0,
40.019298,0,3636,-82.97813,GENHAMW,,,,GENESSEE AVE & HAMILTON AVE,0,
40.084122,0,5327,-83.122302,FRACRAN,,,,FRANTZ RD & CRAMER CREEK CT,0,
40.049263,0,3135,-82.9541,CLEFERS,,,,CLEVELAND AVE & FERRIS RD,0,
39.981265,0,5450,-82.980059,SAIOPPN,,,,SAINT CLAIR AVE & E 2ND AVE,0,
39.944377,0,2777,-82.982854,WHIPARW,,,,E WHITTIER ST & PARSONS AVE,0,
40.050481,0,3084,-82.953587,CLEFERN,,,,CLEVELAND AVE & FERRIS RD,0,
40.003302,0,4622,-83.153985,HILROBS,,,,HILLIARD ROME RD & ROBERTS RD,0,
39.982237,0,2934,-83.055612,1STWYAE,,,,W 1ST AVE & WYANDOTTE RD,0,
40.019195,0,3609,-82.977844,GENHAME,,,,GENESSEE AVE & HAMILTON AVE,0,
40.02293,0,1139,-82.964823,CLEWEBS,,,,CLEVELAND AVE & E WEBER RD,0,
40.003818,0,3836,-83.009931,WOOHIGW,,,,W WOODRUFF AVE & N HIGH ST,0,
39.923529,0,2819,-82.984469,PARMARN,,,,PARSONS AVE & MARION RD,0,
39.98431,0,6857,-82.800592,BROSCEIW,,,,E BROAD ST & SCENIC DR,0,
39.955182,0,2642,-83.070966,BROOGDW,,,,W BROAD ST & N OGDEN AVE,0,
39.94982,0,2696,-83.040213,SULMARW,,,,SULLIVANT AVE & MARTHA AVE,0,
39.946535,0,4887,-82.982703,PARCOLN,,,,PARSONS AVE & E COLUMBUS ST,0,
39.953065,0,4410,-83.115235,BRO425W,,,4250 W BROAD ST & NATIONWIDE BLVD,4250 W BROAD ST,0,
39.984113,0,6856,-82.800288,BROSCEIE,,,,E BROAD ST & SCENIC DR,0,
39.970955,0,1627,-82.979411,MOUGARE,,,,MOUNT VERNON AVE & N GARFIELD AVE,0,
39.901239,0,7004,-82.860945,HARCLEAE,,,,HARBOR BLVD & CLEARWATER DR,0,
40.112602,0,4664,-82.994889,WORLAKS,,,,WORTHINGTON GALENA & LAKEVIEW PLAZA,0,
39.877089,0,7085,-82.931336,ALULINS,,,,ALUM CREEK DR & LINDSAY RD,0,
39.932993,0,2117,-82.964624,LOCSHES,,,,LOCKBOURNE RD & SHELDON AVE,0,
39.954668,0,2654,-83.077932,BROROYE,,,,W BROAD ST & S ROYS AVE,0,
40.024278,0,1442,-83.001531,INDWEBN,,,,INDIANOLA AVE & E WEBER RD,0,
40.062295,0,5093,-82.970973,TAM464S,,,,4645 TAMARACK BLVD,0,
39.9003,0,4648,-82.952685,WEISOUW,,,,WEIRTON DR & SOUTHFIELD DR S,0,
40.030734,0,4696,-82.957392,WESALBN,,,,WESTERVILLE RD & ALBERT AVE,0,
39.917157,0,3417,-82.909024,REFSCHW,,,,REFUGEE RD & SCHWARTZ RD,0,
39.962182,0,2043,-82.952865,OAKFAIW,,,,OAK ST & FAIRWOOD AVE,0,
39.97673,0,6510,-82.997999,4THLINN,,,659 N 4TH ST & LINCOLN ST,N 4TH ST & LINCOLN ST,0,
39.928721,0,4731,-82.898328,COURIVN,,,,COURTRIGHT RD & RIVERDALE SQ,0,
39.950783,0,2740,-83.034558,SULDANE,,,,SULLIVANT AVE & DANA AVE,0,
40.030904,0,4444,-83.029716,NOROLEE,,,,W NORTH BROADWAY & OLENTANGY RIV RD,0,
39.916989,0,3238,-82.908666,REFSCHE,,,,REFUGEE RD & SCHWARTZ RD,0,
40.026657,0,4736,-82.944966,AGLBRIE,,,,AGLER RD & BRIDGEWALK ST,0,
39.954985,0,3705,-82.823027,MAI650W,,,,6500 E MAIN ST,0,
39.879707,0,1881,-82.950877,GROCHISE,,,,GROVEPORT RD & CHILLICOTHE ST,0,
39.944351,0,2752,-82.987564,WHIBRUE,,,,E WHITTIER ST & BRUCK ST,0,
40.056115,0,3406,-83.075579,DIE490N,,,,4900 DIERKER RD,0,
39.994746,0,4391,-82.868721,HAMSAWS,,,,N HAMILTON RD & SAWYER RD,0,
39.995158,0,1154,-82.980264,CLECHIS,,,,CLEVELAND AVE & CHITTENDEN AVE,0,
39.996943,0,4445,-83.013476,12T221W,,,,221 W 12TH AVE,0,
39.928895,0,4845,-82.898465,COURIVS,,,,COURTRIGHT RD & RIVERDALE SQ,0,
39.913326,0,7013,-82.842785,CHATBONE,,,,CHATTERTON RD & BONUS DR,0,
39.852861,0,7070,-82.938754,ALUCRKSS,,,,ALUM CREEK DR & CREEKSIDE PKWY,0,
40.137345,0,7485,-82.991819,SAN8491S,,,,8491 SANCUS BLVD,0,
39.984356,0,3730,-82.979818,SAI4THN,,,,SAINT CLAIR AVE & GIBBARD AVE,0,
39.9698,0,7195,-82.963214,HAWBURE1,,,,HAWTHORNE AVE & BURT ST,0,
39.944123,0,2754,-82.983295,WHIPARE,,,,E WHITTIER ST & PARSONS AVE,0,
39.987393,0,5359,-83.08993,HAGOPPS,,,,N HAGUE AVE & CORTONA RD,0,
39.907428,0,2223,-82.99547,HIGCASS,,,,S HIGH ST & W CASTLE RD,0,
39.945425,0,3551,-82.970367,CHAKOSN,,,,S CHAMPION AVE & E KOSSUTH ST,0,
39.967229,0,4169,-82.992254,SPRGRAW,,,,E SPRING ST & N GRANT AVE,0,
39.927416,0,4903,-82.898606,COUPETS,,,,COURTRIGHT RD & PETZINGER RD,0,
40.03504,0,1208,-83.016675,HIGTORN,,,,N HIGH ST & E TORRENCE RD,0,
39.954311,0,2649,-83.08872,BROSOUTW,,,,W BROAD ST & S SOUTHAMPTON AVE,0,
39.986508,0,5456,-82.966837,JOY5THS,,,,JOYCE AVE & 5TH AVE,0,
39.892603,0,6970,-83.080474,RICADDIS,,,,RICHARD AVE & ADDISON DR,0,
39.927003,0,4902,-82.898497,COUPETN,,,,COURTRIGHT RD & PETZINGER RD,0,
40.003444,0,6694,-83.011013,COLWOOS,,,,COLLEGE RD & WOODRUFF AVE,0,
39.907473,0,2241,-82.99525,HIGCASN,,,,S HIGH ST & E CASTLE RD,0,
39.942754,0,4970,-83.090993,SULDERE,,,,SULLIVANT AVE & DERRER RD,0,
40.018741,0,3068,-82.965503,GENCLEWF,,,,GENESSEE AVE & CLEVELAND AVE,0,
40.06343,0,3974,-82.959732,NOR462N,,,,4621 NORTHTOWNE BLVD,0,
40.057583,0,3019,-82.9621,WALFITN,,,,WALFORD ST & FITZROY DR,0,
39.987117,0,3014,-82.991984,FIE5THN,,,,FIELDS AVE & E 5TH AVE,0,
40.058192,0,3806,-83.075342,DIEWENS,,,,DIERKER RD & WENDYS DR,0,
39.955407,0,4321,-82.791887,MAIESTE,,,,E MAIN ST & ESTATES LN,0,
39.955118,0,3200,-82.806291,MAIHAFE,,,,E MAIN ST & HAFT DR,0,
39.967745,0,1088,-82.99052,CLESPRN,,,,CLEVELAND AVE & E SPRING ST,0,
39.980726,0,6297,-82.830875,BROOUTE,,,,E BROAD ST & OUTERBELT ST,0,
40.058,0,6862,-83.075194,DIEWENN,,,,DIERKER RD & WENDYS DR,0,
39.955272,0,3208,-82.806424,MAIHAFW,,,,E MAIN ST & HAFT DR,0,
39.979675,0,4181,-82.822788,ROSROSEN,,,,ROSEHILL RD & ROSEBROOK LN,0,
40.08692,0,7505,-82.956672,SPRDUBS,,,,SPRING RUN DR & E DUBLIN-GRANVILLE RD,0,
39.986901,0,4551,-82.992121,FIE5THS,,,,FIELDS AVE & E 5TH AVE,0,
39.946434,0,2718,-83.089769,WICDEMW,,,,WICKLOW RD & DEMOREST RD,0,
39.960738,0,4183,-82.995695,STA4THW,,,,E STATE ST & S 4TH ST,0,
40.044801,0,1213,-83.0193,HIGGLEN,,,,N HIGH ST & GLENMONT AVE,0,
39.983578,0,6043,-83.087592,HAGOPPN,,,,N HAGUE AVE & WESTMILLS DR,0,
40.10344,0,3043,-82.970537,SKYEVIS,,,,SKYWAE DR & EVINRUDE AVE,0,
40.031289,0,5496,-83.116169,FISPARS,,,,FISHINGER BLVD & PARK MILL RUN DR,0,
39.914562,0,3784,-82.857368,DUNCHAN,,,,DUNLOE RD & CHATTERTON RD,0,
40.116283,0,2901,-83.014579,VANREDS,,,,VANTAGE DR & RED ROOF INN,0,
39.955475,0,4328,-82.796211,MAIWAGW,,,,E MAIN ST & WAGGONER RD,0,
39.992779,0,5535,-82.96617,JOYDEWN,,,,JOYCE AVE & DEWEY AVE,0,
40.032578,0,3427,-83.050716,KENTREN,,,,KENNY RD & TREMONT RD,0,
39.99279,0,5533,-82.966294,JOYDEWS,,,,JOYCE AVE & DEWEY AVE,0,
39.953711,0,4286,-83.097541,BROBROLE,,,,W BROAD ST & BROADLAWN AVE,0,
40.087283,0,7376,-82.742109,SMI904S,,,9040 SMITH'S MILL RD,9040 SMITHS MILL RD,0,
39.966625,0,1087,-82.990461,CLELONN,,,,CLEVELAND AVE & E LONG ST,0,
40.022723,0,3689,-82.965572,WEBCLEE,,,,E WEBER RD & CLEVELAND AVE,0,
40.051973,0,3412,-83.071262,MACCROW,,,,MACKENZIE DR & CROMPTON DR,0,
39.939207,0,2421,-83.096659,EAKWEDE,,,,EAKIN RD & WEDGEWOOD DR,0,
40.019182,0,1813,-82.98159,MCGGENS,,,,MCGUFFEY RD & GENESSEE AVE,0,
39.928327,0,5066,-82.826856,CONKROW,,,,CONSUMER SQ SERV RD & TUSSING RD,0,
39.954167,0,4288,-83.08801,BROSOUTE,,,,W BROAD ST & S SOUTHAMPTON AVE,0,
39.939268,0,2403,-83.096168,EAKWEDW,,,,EAKIN RD & WEDGEWOOD DR,0,
39.890952,0,2993,-83.080245,RICSOUNF,,,,RICHARD AVE & SOUTHWEST BLVD,0,
40.092168,0,5020,-83.003846,PROSTAN,,,,PROPRIETORS RD & STAFFORD AVE,0,
40.040115,0,4201,-82.9612,CLEELMN,,,,CLEVELAND AVE & ELMORE AVE,0,
39.91958,0,3717,-83.062691,HAR187S,,,,1871 HARRISBURG PIKE,0,
39.985729,0,6821,-82.785807,BROMIEE,,,,E BROAD ST & MEIJER DR,0,
39.93911,0,2422,-83.094179,EAKBRIXE,,,,EAKIN RD & BRIXHAM RD,0,
40.087809,0,3458,-82.926914,WESCOOS,,,,WESTERVILLE RD & COOPER RD,0,
40.060216,0,4911,-83.050996,GODCHEW,,,,GODOWN RD & CHEVIOT DR,0,
39.968583,0,3466,-83.033391,TWIDIVW,,,,910 TWIN RIVERS DR,0,
39.936277,0,2158,-82.985353,WASHANN,,,,S WASHINGTON AVE & HANFORD ST,0,
40.027669,0,3421,-83.027931,OLE3368N,,,,3368 OLENTANGY RIVER RD,0,
40.041489,0,3139,-82.960877,CLEELMS,,,,CLEVELAND AVE & ELMORE AVE,0,
40.103798,0,4396,-83.061407,SNOOPPW,,,,SNOUFFER RD & DONAHUE CT,0,
39.939177,0,2402,-83.093813,EAKBRIXW,,,,EAKIN RD & BRIXHAM RD,0,
39.985861,0,6822,-82.786867,BROMIEW,,,,E BROAD ST & MEIJER DR,0,
39.90367,0,6999,-82.87956,HARBEAWE,,,,HARBOR BLVD & BEACHWORTH DR,0,
40.065968,0,6587,-83.09337,SAWBETS,,,SAWMILL RD & BETHEL-SAWMILL CENTER,SAWMILL RD & BETHEL RD,0,
39.965879,0,6365,-83.002411,NORSPRN_merged_559577,,,COTA NORTH TERMINAL,NORTH TERMINAL - ANY BAY,0,
39.987267,0,1518,-83.00813,5THDENW,,,,W 5TH AVE & DENNISON AVE,0,
40.063395,0,4621,-83.04388,BETJASW,,,,BETHEL RD & JASONWAY AVE,0,
39.989114,0,7117,-83.044352,GRA5THN,,,,GRANDVIEW AVE & W 5TH AVE,0,
39.946055,0,2258,-82.997395,HIGCOLN,,,,S HIGH ST & E COLUMBUS ST,0,
40.108626,0,4020,-83.022352,WILCORW,,,,WILSON BRIDGE RD & CORPORATE HILL,0,
39.879604,0,3247,-82.95068,GROCHIW,,,,GROVEPORT RD & CHILLICOTHE ST,0,
40.051672,0,4714,-83.027566,HENOLEBE,,,,W HENDERSON RD & OLENTANGY BLVD,0,
39.977014,0,7532,-82.913009,JAMRUHN,,,N JAMES RD,JAMES RD & RUHL AVE,0,
40.013306,0,1351,-82.863631,ROCLANW2,,,,ROCKY FORK BLVD & LANDOVER PL,0,
39.971594,0,4771,-82.913594,JAMBROS,,,,S JAMES RD & E BROAD ST,0,
39.987153,0,1619,-83.008523,5THDENE,,,,W 5TH AVE & DENNISON AVE,0,
40.06319,0,4705,-83.044021,BETJASE,,,BETHEL RD & KENNY RD,BETHEL RD & JASONWAY AVE,0,
39.975023,0,7116,-83.027634,GRVYRDS,,,BOBCAT & GOODALE BLVD,GRANDVIEW YARD SOUTHBOUND STOP,0,
40.091979,0,7180,-83.091611,620SAWN,,,,6200 SAWMILL RD,0,
39.930187,0,3146,-83.05124,HARZETS,,,,HARRISBURG PIKE & ZETTLER CENTER DR,0,
39.927723,0,2214,-82.993238,4THWOOS,,,,S 4TH ST & E WOODROW AVE,0,
40.051793,0,4607,-83.02712,HENOLEBW,,,,W HENDERSON RD & OLENTANGY BLVD,0,
39.841699,0,3278,-82.805815,HIGCOLS,,,,S HIGH ST & W COLUMBUS ST,0,
39.988412,0,3525,-83.044558,GRA5THS,,,,GRANDVIEW AVE & W 5TH AVE,0,
39.939474,0,2162,-82.990579,JAETHUN,,,,JAEGER ST & THURMAN AVE,0,
40.011654,0,1196,-83.0105,HIGBLAN,,,,N HIGH ST & E BLAKE AVE,0,
39.853443,0,3292,-82.89359,MAIMADW,,,,MAIN ST & MADISON ST,0,
39.923092,0,4130,-82.898721,COUCLAN,,,,COURTRIGHT RD & CLARKSTON AVE,0,
39.998067,0,6322,-82.884581,AIRDEPNE,,,INTERNATIONAL GTWY,AIRPORT TERMINAL DEPARTING FLIGHTS,0,
40.103511,0,4166,-83.048993,SNOLAUW,,,,SNOUFFER RD & LAUREN PL,0,
39.913521,0,3782,-82.858144,DUNRUTS,,,,DUNLOE RD & RUTLEDGE DR N,0,
40.013375,0,1869,-82.959123,HUDDELW,,,,E HUDSON ST & DELBERT RD,0,
40.100078,0,3039,-82.962105,SHACARN,,,,SHARON WOODS BLVD & CARDINGTON AVE,0,
39.978836,0,6576,-82.968013,LEOCHAW,,,,LEONARD AVE & N CHAMPION AVE,0,
39.949283,0,7347,-82.998211,HIGSYCS1,,,S HIGH ST & W SYCAMORE ST,HIGH ST & W SYCAMORE ST,0,
39.923168,0,4129,-82.898913,COUCLAS,,,,COURTRIGHT RD & CLARKSTON AVE,0,
39.964224,0,4413,-82.984176,BROJEFW,,,,E BROAD ST & JEFFERSON AVE,0,
40.076688,0,6201,-83.128911,TUTBRAW,,,,TUTTLE CROSSING & BRADENTON AVE,0,
39.910787,0,6991,-82.824316,REFGENE,,,,REFUGEE RD & GENDER RD,0,
39.972516,0,2528,-82.909396,BROHAMPW,,,,E BROAD ST & N HAMPTON RD,0,
39.971554,0,6345,-83.005175,VINPARW,,,,VINE ST & N PARK ST,0,
39.944404,0,3232,-83.117303,WESSHES,,,,WESTPORT RD & SHERWOOD FOREST CT E,0,
40.016273,0,1287,-83.011874,HIGDODS,,,,N HIGH ST & W DODRIDGE ST,0,
39.955429,0,2460,-83.016835,RICGRUE,,,,W RICH ST & S GRUBB ST,0,
