stop_id,stop_code,stop_name,stop_desc,stop_lat,stop_lon,zone_id,stop_url,location_type,parent_station,stop_timezone,wheelchair_boarding
MOUHARE,5436,W MOUND ST & HARRISBURG PIKE,,39.945983,-83.034566,,,0,,,0
4TH5THN,1420,N 4TH ST & E 5TH AVE,,39.987295,-82.999474,,,0,,,0
HIGWOON,1192,N HIGH ST & W WOODRUFF AVE,,40.003566,-83.008642,,,0,,,0
WHILILW,2767,E WHITTIER ST & LILLEY AVE,,39.943159,-82.958744,,,0,,,0
GRESALS,8019,GREEN POINTE DR S & SALTZGARBER RD,GREEN POINTE DR S & SALTZGABER RD,39.846662,-82.907398,,,0,,,0
RIELAMS,1246,RIEBER ST & LAMBOURNE AVE,,40.101097,-83.028451,,,0,,,0
NEI5THS,1708,NEIL AVE & W 5TH AVE,,39.987521,-83.013213,,,0,,,0
STASCHS,3119,S STATE ST & E SCHROCK RD,,40.110421,-82.92597,,,0,,,0
WEBBREW,3690,E WEBER RD & BREMEN ST,,40.02301,-82.969351,,,0,,,0
HIGWILN1,2235,S HIGH ST & WILLIAMS RD,,39.892144,-82.996298,,,0,,,0
STASCHN,3099,S STATE ST & E SCHROCK RD,,40.110056,-82.925583,,,0,,,0
KARCOOS1,4782,KARL RD & E COOKE RD,,40.045865,-82.977153,,,0,,,0
MAICARW,2353,E MAIN ST & CARPENTER ST,,39.95801,-82.974384,,,0,,,0
NEI5THN,1695,NEIL AVE & W 5TH AVE,,39.98716,-83.012959,,,0,,,0
MCK851E,4145,851 MCKINLEY AVE,,39.962878,-83.024381,,,0,,,0
HUDGRAE,3604,E HUDSON ST & GRASMERE AVE,,40.014297,-82.98315,,,0,,,0
OHICOLS,3575,S OHIO AVE & E COLUMBUS ST,,39.946334,-82.971801,,,0,,,0
WEBBREE,3688,E WEBER RD & BREMEN ST,,40.022901,-82.969686,,,0,,,0
MCKCYPE,4132,MCKINLEY AVE & N CYPRESS AVE,,39.963119,-83.028993,,,0,,,0
SMOSWAN,5574,SMOKY ROW RD & SWANSFORD DR,,40.123365,-83.068609,,,0,,,0
EAKSALW,2397,EAKIN RD & SALISBURY RD,,39.939385,-83.08004,,,0,,,0
1STOXLE,2942,W 1ST AVE & OXLEY RD,,39.979828,-83.034742,,,0,,,0
MCKCYPW,4163,MCKINLEY AVE & N CYPRESS AVE,,39.963195,-83.028714,,,0,,,0
GEONORE,7830,GEORGESVILLE RD & NORTON RD,,39.915521,-83.143714,,,0,,,0
SMOSWAS,5573,SMOKY ROW RD & SWANSFORD DR,,40.123212,-83.068674,,,0,,,0
3RDKOSN,5089,S 3RD ST & KOSSUTH ST,,39.945921,-82.994678,,,0,,,0
CASCARN,6085,N CASSADY AVE & CARALEE DR,,40.023966,-82.928458,,,0,,,0
1STOXLW,2912,W 1ST AVE & OXLEY RD,,39.979931,-83.034525,,,0,,,0
HILFEDN,7727,HILLIARD ROME RD & FEDER RD,HILLIARD ROME RD & ROHR RD,39.972777,-83.149856,,,0,,,0
DSWWESW,6374,DSW WAREHOUSE WEST ENTRANCE,DSW SERVICE RD,39.988167,-82.896298,,,0,,,0
JAMDALS,4773,S JAMES RD & DALE AVE,,39.963673,-82.914306,,,0,,,0
WATNEWW,7579,WATKINS RD & NEW WORLD DR,,39.904031,-82.939262,,,0,,,0
MOU18TE,1629,MOUNT VERNON AVE & N 18TH ST,,39.971639,-82.975812,,,0,,,0
CLECLYS,5731,CLEVELAND AVE & CLYBOURNE RD,,40.062073,-82.952929,,,0,,,0
WHIBERE,2764,E WHITTIER ST & BERKELEY RD,,39.943033,-82.957888,,,0,,,0
CLEWALN,6772,CLEVELAND AVE & WALLCREST BLVD,,40.072682,-82.951851,,,0,,,0
HAR196N,3002,1896 HARRISBURG PIKE,,39.919363,-83.062659,,,0,,,0
HUDHIGW,3652,E HUDSON ST & N HIGH ST,,40.014559,-83.010991,,,0,,,0
ALUFRAN,3536,ALUM CREEK DR & INTEGRITY DR S,ALUM CREEK DR & INTERGITY DR S,39.932249,-82.941459,,,0,,,0
MCKCRON,6577,MCKITRICK BLVD & CROWN PARK CT,,40.06494,-83.070619,,,0,,,0
ROSBARE,4842,ROSWELL DR & BARNETT RD,,39.939371,-82.906627,,,0,,,0
HIG210S,2218,2101 S HIGH ST,,39.91941,-82.995505,,,0,,,0
JAMDALN,4768,S JAMES RD & DALE AVE,,39.964159,-82.914042,,,0,,,0
CHAMTVS,7960,N CHAMPION AVE & MT VERNON AVE,,39.972722,-82.96824,,,0,,,0
HILFEDS,7726,HILLIARD ROME RD & FEDER RD,HILLIARD ROME RD & ROHR RD,39.972384,-83.15002,,,0,,,0
MAIPARE,2283,E MAIN ST & S PARKVIEW AVE,,39.957207,-82.941985,,,0,,,0
CHEMARE,1871,CHELFORD DR & MARVIEW RD,,40.026442,-82.926405,,,0,,,0
KARELMS,4678,KARL RD & ELMORE AVE,,40.042689,-82.97738,,,0,,,0
GREWALS,6186,GREAT SOUTHERN WAL-MART,,39.8891,-83.000805,,,0,,,0
LINROCS,5710,LINWORTH RD & ROCKY RILL RD,,40.077807,-83.047575,,,0,,,0
EASOFFE,2292,EASTGREEN BLVD & OFFICEVIEW PL,,39.938296,-82.829369,,,0,,,0
CLE23RN,1108,CLEVELAND AVE & E 23RD AVE,,40.005664,-82.972204,,,0,,,0
DALDUBN,7498,DUBLIN DALE DR PARK & RIDE,,40.101391,-83.107014,,,0,,,0
WES740W,7331,7400 WEST CAMPUS ROAD,7400 WEST CAMPUS RD,40.105486,-82.819881,,,0,,,0
BARSCON,4740,BARNETT RD & SCOTTWOOD RD,,39.940385,-82.906795,,,0,,,0
EMEGLES,5763,EMERALD PKWY & GLENDON CT,,40.080646,-83.1415,,,0,,,0
LINROCN,3499,LINWORTH RD & ROCKY RILL RD,,40.077798,-83.047447,,,0,,,0
EASOFFW,5142,EASTGREEN BLVD & OFFICEVIEW PL,,39.938459,-82.829,,,0,,,0
HAMPOTS,4393,N HAMILTON RD & POTH RD,,39.98063,-82.872839,,,0,,,0
BRYMONE,2069,BRYDEN RD & S MONROE AVE,,39.96055,-82.978672,,,0,,,0
BROHOMS,2968,BROADWAY & HOME RD,BROADWAY & HOME ROAD,39.901249,-83.077996,,,0,,,0
MAIZEBS,1789,MAIZE RD & ZEBULON AVE,,40.038838,-82.989135,,,0,,,0
KARELMN,4671,KARL RD & ELMORE AVE,,40.042256,-82.977285,,,0,,,0
INDJEFN,1460,INDIANOLA AVE & E JEFFREY PL,,40.060612,-83.000946,,,0,,,0
TOWWASW,2055,E TOWN ST & S WASHINGTON AVE,,39.9604,-82.986756,,,0,,,0
790SCIN,7644,790 SCIENCE BLVD,,39.996488,-82.843247,,,0,,,0
HARBEAW,6535,HARBOR BLVD & BEACHWORTH DR,,39.904069,-82.879953,,,0,,,0
11T4THW,7596,E 11TH AVE & N 4TH ST,,39.994487,-82.999561,,,0,,,0
TOWWASE,2066,E TOWN ST & S WASHINGTON AVE,,39.960286,-82.986557,,,0,,,0
BROBELE,7973,W BROAD ST & BELLE ST,W BROAD ST & S BELLE ST,39.961205,-83.008391,,,0,,,0
SAN832N,7484,8322 SANCUS BLVD,,40.13763,-82.991595,,,0,,,0
LAZBOY,7522,LAY Z BOY,GREEN POINTE DR S & OPUS DR,39.846238,-82.919083,,,0,,,0
11T4THE,1719,E 11TH AVE & N 4TH ST,,39.994369,-82.999378,,,0,,,0
KINOPPW,2193,KING AVE & MEADOW RD,,39.991438,-83.03924,,,0,,,0
MOUMIAW,1678,MOUNT VERNON AVE & MIAMI AVE,,39.972024,-82.974453,,,0,,,0
WESP&RW,6003,WESTERVILLE PARK AND RIDE,WESTERVILLE PARK & RIDE,40.125772,-82.94396,,,0,,,0
SNOLAUW,4166,SNOUFFER RD & LAUREN PL,,40.103511,-83.048993,,,0,,,0
AMBOPPN,3992,AMBLESIDE DR & KILDARE SQ S,,40.096481,-82.981872,,,0,,,0
HATNOEW,3331,HATFIELD DR & NOE BIXBY RD,,39.912581,-82.862809,,,0,,,0
HIGNORMS,1279,N HIGH ST & NORTHMOOR PL,,40.036224,-83.017185,,,0,,,0
OLE2825S,6778,2825 OLENTANGY RIVER RD,,40.018712,-83.024156,,,0,,,0
BRIHIRN,6096,BRITTON PKWY & HIRTH RD,BRITTON PARKWAY & HIRTH RD,40.072994,-83.138915,,,0,,,0
BROCASAW,2536,E BROAD ST & N CASSADY AVE,,39.969934,-82.93334,,,0,,,0
EDG3RDS,7969,EDGHILL RD & W 3RD AVE,EDGEHILL RD & W 3RD AVE,39.984526,-83.029302,,,0,,,0
BRIHIRS,5740,BRITTON PKWY & HIRTH RD,BRITTON PARKWAY & HIRTH RD,40.07285,-83.138995,,,0,,,0
OLE2825N,4204,2825 OLENTANGY RIVER RD,,40.018477,-83.023723,,,0,,,0
BROWARE,2657,W BROAD ST & S WARREN AVE,,39.954979,-83.071311,,,0,,,0
BROCASAE,2487,E BROAD ST & S CASSADY AVE,,39.969901,-82.932366,,,0,,,0
ALUNEWWN,6915,ALUM CREEK DR & NEW WORLD DR,,39.897942,-82.929355,,,0,,,0
OAKONTE,3721,OAKLAND PARK AVE & ONTARIO ST,,40.031792,-82.97521,,,0,,,0
SNOBRIW,4395,SNOUFFER RD & BRIDE WATER BLVD,,40.103705,-83.05774,,,0,,,0
BROLATE,2480,E BROAD ST & LATTA AVE,,39.966473,-82.962886,,,0,,,0
WHI5THW,2780,E WHITTIER ST & S 5TH ST,,39.944588,-82.991193,,,0,,,0
MYRWOOW,4688,MYRTLE AVE & WOODLAND AVE,,40.01649,-82.950503,,,0,,,0
MAIMORN1,6014,MAIZE RD & MORSE RD,4532 MAIZE RD & MORSE RD,40.059809,-82.987309,,,0,,,0
KARACRS,4011,KARL RD & RED ROBIN RD,,40.064932,-82.977113,,,0,,,0
ZOLASBE,1369,ZOLLINGER RD & ASBURY DR,,40.019526,-83.075886,,,0,,,0
ALUNEWWS,6916,ALUM CREEK DR & NEW WORLD DR,,39.897843,-82.929579,,,0,,,0
MYRWOOE,4689,MYRTLE AVE & WOODLAND AVE,,40.016425,-82.950475,,,0,,,0
BRE1257N,1844,1257 BRENTNELL AVE,,39.993947,-82.949665,,,0,,,0
RICSOUS,4987,RICHARD AVE & SOUTHWEST BLVD,,39.891039,-83.080435,,,0,,,0
CASAGLN,6030,N CASSADY AVE & AGLER RD,,40.020828,-82.928607,,,0,,,0
FIS365N,5502,3650 FISHINGER BLVD,,40.029862,-83.11648,,,0,,,0
BET115W,5688,1154 BETHEL RD,1154 BETHEL RD & DEVONTRY LN,40.063539,-83.049486,,,0,,,0
EASSUNE,7458,EASTON WAY & SUNBURY RD,EASTON WAY & MORSE CROSSING,40.049755,-82.928326,,,0,,,0
HIGSTAS,1251,S HIGH ST & W STATE ST,,39.960285,-83.000381,,,0,,,0
BROHEAE,5406,BROOKSEDGE BLVD & HEATHERDOWN DR,,40.105734,-82.932437,,,0,,,0
SCHKARE,7940,SCHROCK RD & KARL RD,,40.105229,-82.97427,,,0,,,0
COUKIRN,7609,COURTRIGHT RD & KIRKWOOD RD,,39.941489,-82.897162,,,0,,,0
GENCLEWF,3068,GENESSEE AVE & CLEVELAND AVE,,40.018741,-82.965503,,,0,,,0
BET115E,5687,1151 BETHEL RD,1151 BETHEL RD & DEVONTRY LN,40.063386,-83.049912,,,0,,,0
OLDBRON,4245,OLD VILLAGE RD & W BROAD ST,,39.953661,-83.123647,,,0,,,0
HARGRAW,3926,HARBOR BLVD & GRAYSTONE DR,,39.903358,-82.87576,,,0,,,0
PAR647S,5759,6471 PARK MEADOW RD,,40.1094,-82.936331,,,0,,,0
NOR169E,6072,169 E NORTH BROADWAY,169 E NORTH BROADWAY ST,40.031447,-83.010737,,,0,,,0
CASAGLS,3172,N CASSADY AVE & AGLER RD,,40.02031,-82.928792,,,0,,,0
WAL732W,7342,7323 WALTON PKWY,,40.094008,-82.819142,,,0,,,0
BRYOPPE,2075,BRYDEN RD & KENDALL PL,,39.960287,-82.962925,,,0,,,0
MOUBURE,1634,MOUNT VERNON AVE & BURT ST,,39.973829,-82.963424,,,0,,,0
MAIRHOE,2281,E MAIN ST & RHOADS AVE,,39.95736,-82.948969,,,0,,,0
BROHARDW,2531,E BROAD ST & N HARDING RD,,39.971446,-82.919243,,,0,,,0
GEOPARN,5462,GEORGESVILLE & PARKWICK DR,GEORGESVILLE RD & PARKWICK DR,39.927122,-83.116773,,,0,,,0
WESDEMN,3098,WESTERVILLE RD & DEMPSEY RD,,40.096409,-82.92518,,,0,,,0
SAIGIBS,5453,SAINT CLAIR AVE & GIBBARD AVE,ST CLAIR AVE & GIBBARD AVE,39.984342,-82.979941,,,0,,,0
MAIRHOW,2343,E MAIN ST & RHOADS AVE,,39.957502,-82.94909,,,0,,,0
BROHARDE,2492,E BROAD ST & S HARDING RD,,39.971319,-82.919001,,,0,,,0
HOSHIGE,2246,HOSACK ST & S HIGH ST,,39.922754,-82.994753,,,0,,,0
FISPEMW,2895,FISHINGER RD & PEMBERTON DR,,40.024287,-83.054384,,,0,,,0
1STOAKW,2918,W 1ST AVE & OAKLAND AVE,,39.982045,-83.04905,,,0,,,0
SMOSTON,4403,SMOKY ROW RD & STOWBRIDGE RD,,40.129024,-83.069842,,,0,,,0
HAMREFN,3816,S HAMILTON RD & REFUGEE RD,,39.915923,-82.880432,,,0,,,0
MCK3235N,5856,3235 MCKINLEY AVE,,39.993112,-83.082883,,,0,,,0
NORCARS,3793,NORTH STAR RD & CARDIFF RD,,40.004266,-83.048196,,,0,,,0
HIGHALS,1336,N HIGH ST & HALLIGAN AVE,,40.103119,-83.017269,,,0,,,0
MOURIDS,7974,MOUNTVIEW RD & RIDGECLIFF RD,,40.023294,-83.072727,,,0,,,0
LIVOHIW,2009,E LIVINGSTON AVE & S OHIO AVE,,39.949822,-82.971857,,,0,,,0
AGLLINVE,6487,AGLER RD & LINVIEW AVE,,40.027105,-82.956527,,,0,,,0
CLEWESTN,6928,CLEVELAND AVE & WESTAR BLVD,N CLEVELAND AVE & WESTAR BLVD,40.140589,-82.946923,,,0,,,0
HUDOSCW,3645,E HUDSON ST & OSCEOLA AVE,,40.014704,-82.989737,,,0,,,0
CLEWESTS,6929,CLEVELAND AVE & WESTAR BLVD,N CLEVELAND AVE & WESTAR BLVD,40.141461,-82.947102,,,0,,,0
CLEDEES,3078,CLEVELAND AVE & DEEWOOD DR,,40.09633,-82.950307,,,0,,,0
VALTASW,1583,VALLEY QUAIL BLVD N & TASSEL CT,,40.090368,-82.895497,,,0,,,0
BRISHAW,7717,W BRIDGE ST & SHAWAN FALLS DR,,40.099275,-83.120887,,,0,,,0
WOOCANE,3832,WOODY HAYES DR & CANNON DR,,40.004094,-83.020716,,,0,,,0
SOUTER2A,7983,COTA TRANSIT TERMINAL BAY 2 ARRIVE,COTA SOUTH TERMINAL NORTHBOUND PATH & E RICH ST,39.956922,-82.999005,,,0,,,0
SULWAYW,2705,SULLIVANT AVE & S WAYNE AVE,,39.945467,-83.063423,,,0,,,0
JAMMAIN,4766,S JAMES RD & E MAIN ST,,39.957123,-82.91468,,,0,,,0
BROENTE,2666,W BROAD ST & GLENWOOD PARK,,39.956433,-83.047616,,,0,,,0
CASDEMS,4464,N CASSADY AVE & DEMONYE DR,,39.997804,-82.930314,,,0,,,0
BOBEDGS,7971,BOBCAT AVE & EDGEHILL RD,,39.983857,-83.029478,,,0,,,0
CASDEMN,5717,N CASSADY AVE & DEMONYE DR,,39.998003,-82.93009,,,0,,,0
KARSTON,7203,KARL RD & STONEGATE SQUARE WEST,KARL RD & STONEGATE SQ W,40.049255,-82.976707,,,0,,,0
JAMMAIS,4775,S JAMES RD & E MAIN ST,,39.956809,-82.91488,,,0,,,0
SCH99BE,5402,99 W SCHROCK RD,,40.109767,-82.928078,,,0,,,0
BROENTW,4409,W BROAD ST & RHODES PARK,,39.956296,-83.050394,,,0,,,0
NORBURNW,2909,NORTHWEST BLVD & BURR AVE,,39.976434,-83.029127,,,0,,,0
JOY177N,4071,1770 JOYCE AVE,,40.003421,-82.96432,,,0,,,0
KENPARS,3480,KENNY RD & PARKLEIGH RD,,40.043228,-83.050394,,,0,,,0
GATGATN,3157,GATEWOOD RD & GATEWOOD CT,,40.021188,-82.923264,,,0,,,0
CASCUMN,2621,CASSADY AVE & CUMBERLAND WOODS DR,,40.009756,-82.929373,,,0,,,0
CHALEOS,7866,N CHAMPION AVE & LEONARD AVE,,39.978506,-82.968261,,,0,,,0
BROCARW,1172,E BROAD ST & CARDINAL PARK DR,RAMP & E BROAD ST,39.977818,-82.859826,,,0,,,0
MARHAME,1625,MARTIN LUTHER KING & HAMILTON AVE,,39.968762,-82.981551,,,0,,,0
KAR634S,4001,6347 KARL RD,,40.096763,-82.976003,,,0,,,0
GENBREE1,7382,GENESSEE AVE & BREMEN ST,,40.018854,-82.970093,,,0,,,0
SOUTR10L,7984,COTA TRANSIT TERMINAL BAY 10 LEAVE,COTA SOUTH TERMINAL NORTHBOUND PATH & E RICH ST,39.957556,-82.999195,,,0,,,0
BROMAPE,1168,E BROAD ST & MAPLEWOOD AVE,,39.973168,-82.901904,,,0,,,0
KENPARN,3433,KENNY RD & PARKLEIGH RD,,40.043286,-83.050217,,,0,,,0
COLDUDLW,6985,COLUMBUS ST & DUDLEY AVE,,39.881958,-83.089302,,,0,,,0
SOUTR10A,7511,COTA TRANSIT TERMINAL BAY 10 ARRIVE,COTA SOUTH TERMINAL NORTHBOUND PATH & E MAIN ST,39.956217,-82.998933,,,0,,,0
MORSETN,6873,MORSE CROSSING & SETON ST,,40.055057,-82.918297,,,0,,,0
SMOSMOE,4406,SMOKY VIEW BLVD & SMOKY ROW RD,,40.135729,-83.071906,,,0,,,0
HAGTRAS,5357,N HAGUE AVE & TRABUE RD,,39.99209,-83.092675,,,0,,,0
HAMDUXS,1818,HAMILTON AVE & DUXBERRY AVE,,40.008877,-82.979448,,,0,,,0
CLEMORS,3133,CLEVELAND AVE & MORSE RD,,40.058766,-82.953179,,,0,,,0
STELSUNE,6896,STELZER RD & SUNBURY RD,,40.063229,-82.915636,,,0,,,0
CLIMCCE,7799,CLIME RD & MCCARLEY DR,,39.928294,-83.094831,,,0,,,0
MORMALE,5958,MORSE RD & MALIN ST,,40.059715,-82.957275,,,0,,,0
BROWASBE,2680,W BROAD ST & WASHINGTON BLVD,,39.961312,-83.007202,,,0,,,0
SMOSMOW,7240,SMOKY VIEW BLVD & SMOKY ROW RD,,40.135824,-83.07192,,,0,,,0
BRIPORN,5166,BRICE RD & PORTSMOUTH DR,,39.958014,-82.827845,,,0,,,0
STELSUNW,6897,STELZER RD & SUNBURY RD,,40.063479,-82.915494,,,0,,,0
CLEMORN,3086,CLEVELAND AVE & MORSE RD,,40.05916,-82.952914,,,0,,,0
CLIMCCW,7797,CLIME RD & MCCARLEY DR,,39.928437,-83.09469,,,0,,,0
MORMALW,5957,MORSE RD & MALIN ST,,40.059962,-82.958103,,,0,,,0
HAMDUXN,1729,HAMILTON AVE & DUXBERRY AVE,,40.009025,-82.979308,,,0,,,0
RUHKELW,7274,RUHL AVE & N KELLNER RD,,39.977718,-82.914155,,,0,,,0
HIGTOWS,4106,S HIGH ST & W TOWN ST,,39.958095,-82.999953,,,0,,,0
FRE18TW,2155,FREBIS AVE & S 18TH ST,,39.935306,-82.978521,,,0,,,0
HAGVANN,7597,HAGUE AVE & VANDERBERG AVE,S HAGUE AVE & VANDERBERG AVE,39.936772,-83.07454,,,0,,,0
INNUSPW,1127,INNIS RD & US POSTAL SERVICE,2200 INNIS RD,40.037179,-82.955294,,,0,,,0
FRAMONN,5394,FRANTZ RD & MONTEREY DR,,40.090523,-83.123954,,,0,,,0
COUREFN,5705,COURTRIGHT RD & REFUGEE RD,,39.917036,-82.896862,,,0,,,0
JENHIGE,7465,E JENKINS AVE & S HIGH ST,,39.933454,-82.995737,,,0,,,0
ARLTRES,1589,ARLINGTON AVE & TREMONT RD,,40.005044,-83.069108,,,0,,,0
CAMVANW,5137,E CAMPUS VIEW BLVD & VANTAGE DR,,40.11836,-83.013361,,,0,,,0
MCKCENE,4128,MCKINLEY AVE & N CENTRAL AVE,,39.963603,-83.03873,,,0,,,0
FRE18TE,2111,FREBIS AVE & S 18TH ST,,39.935206,-82.978535,,,0,,,0
HAGVANS,7598,HAGUE AVE & VANDERBERG AVE,S HAGUE AVE & VANDERBERG AVE,39.936808,-83.074753,,,0,,,0
ALUCGROS,6947,ALUM CREEK DR & GROVEPORT RD,,39.8677,-82.935524,,,0,,,0
OHIBRYS,3569,S OHIO AVE & BRYDEN RD,,39.960672,-82.970697,,,0,,,0
4THLANN,1430,N 4TH ST & E LANE AVE,,40.005627,-82.998235,,,0,,,0
SHAMAIN,4926,SHADY LANE RD & E MAIN ST,,39.95495,-82.871182,,,0,,,0
BROCHIW,2629,W BROAD ST & CHICAGO AVE,,39.958235,-83.034022,,,0,,,0
OAKHIAW,1743,OAKLAND PARK AVE & HIAWATHA ST,OAKLAND PARK AVE & OSCEOLA DR,40.032441,-82.98605,,,0,,,0
BROHAMIE,2509,E BROAD ST & S HAMILTON RD,,39.976044,-82.874382,,,0,,,0
LOCSMIS,2119,LOCKBOURNE RD & SMITH RD,,39.92734,-82.96508,,,0,,,0
STYCHAS,4379,N STYGLER RD & CHAPELFIELD RD,,40.026454,-82.890041,,,0,,,0
ALUWINS,6906,ALUM CREEK DR & WINSLOW DR,,39.926318,-82.936452,,,0,,,0
HIG5THS,1302,N HIGH ST & W 5TH AVE,,39.986763,-83.005527,,,0,,,0
GRAKINGN,7123,GRANDVIEW AVE & KING AVE,,39.991358,-83.044164,,,0,,,0
TRA511W,5857,5110 TRABUE RD,,39.98254,-83.134894,,,0,,,0
LOCSMIN,2147,LOCKBOURNE RD & SMITH RD,,39.927354,-82.964936,,,0,,,0
TAYBRON1,7980,TAYLOR STATION RD & E BROAD ST,,39.979754,-82.843464,,,0,,,0
BROHAMIW,2549,E BROAD ST & HAMILTON PARK,,39.964562,-82.980925,,,0,,,0
2NDHOWNW,5447,E 2ND AVE & HOWARD ST,,39.981648,-82.984244,,,0,,,0
CLECOPS,1684,S CLEVELAND AVE & COPELAND MILL RD,,40.11264,-82.949147,,,0,,,0
CLEHUYN,1124,CLEVELAND AVE & HUY RD,,40.034844,-82.963432,,,0,,,0
CLEGENN,1116,CLEVELAND AVE & GENESSEE AVE,,40.018498,-82.964969,,,0,,,0
GROTHRUW,6811,GROVEPORT RD & THRUSH DR,,39.845317,-82.822593,,,0,,,0
GODBETS,6532,GODOWN RD & BETHEL RD,,40.06278,-83.056846,,,0,,,0
GENLEHS,7066,GENDER RD & LEHMAN RD,,39.86903,-82.826945,,,0,,,0
GROLITSE,2001,GROVEPORT RD & LITHOPOLIS RD,,39.848867,-82.866038,,,0,,,0
324ALLE,7272,3243 ALLEGHENY AVE,,39.98051,-82.9175,,,0,,,0
AMBCRAS,3981,AMBLESIDE DR & CRANWOOD SQ S,,40.098745,-82.980766,,,0,,,0
CLEWALS,6773,CLEVELAND AVE & WALLCREST BLVD,,40.072082,-82.952139,,,0,,,0
KENKINN2,7958,KENNY RD & KING AVE,,39.991515,-83.035203,,,0,,,0
ZOLDORE,3627,ZOLLINGER RD & S DORCHESTER RD,,40.01978,-83.081146,,,0,,,0
HAY3011E,5810,3011 HAYDEN RD,3011 HAYDEN RD & DONNYLANE BLVD,40.066688,-83.098068,,,0,,,0
LAMRIEW,5266,LAMBOURNE AVE & RIEBER ST,,40.100963,-83.028231,,,0,,,0
LINEMPN,4372,LINCOLNSHIRE RD & EMPIRE DR N,,40.028376,-82.899356,,,0,,,0
NORMINN,3025,NORTHTOWNE BLVD & MINERVA AVE,,40.07161,-82.962211,,,0,,,0
MAIGRANE,2266,E MAIN ST & S GRANT AVE,,39.957245,-82.989172,,,0,,,0
DAVCRYE,7285,DAVIDSON RD & CRYSTAL LAKE DR,,40.04814,-83.153325,,,0,,,0
GODBETN,2061,GODOWN RD & BETHEL RD,,40.06434,-83.056819,,,0,,,0
GENLEHN,7068,GENDER RD & LEHMAN RD,,39.869155,-82.82672,,,0,,,0
CHAMLENW,7118,CHAMBERS RD & LENNOX SVC RD,,39.992018,-83.026692,,,0,,,0
BROMIDLW,2637,W BROAD ST & MIDLAND AVE,,39.955803,-83.057783,,,0,,,0
METS565S,7108,565 METRO PL S,,40.095091,-83.13317,,,0,,,0
MAIMAIW,4104,E MAIN ST & MAIN 270 CENTER,,39.954861,-82.835096,,,0,,,0
NELGREN,3843,N NELSON RD & GREENWAY SOUTH,,39.971253,-82.94915,,,0,,,0
PARMARN1,2823,PARSONS AVE & E MARKISON AVE,,39.931049,-82.983877,,,0,,,0
GEOOSULS,6895,GEORGESVILLE RD & SULLIVANT AVE,,39.938034,-83.112857,,,0,,,0
GROCONW,6465,GROVEPORT RD & COVENANT WAY,GROVEPORT PIKE & COVENANT WAY,39.844589,-82.81438,,,0,,,0
FRETHEE,3587,FREBIS AVE & THELMA B KEE,,39.933948,-82.952251,,,0,,,0
MOURACE,2433,W MOUND ST & RACINE AVE,,39.939739,-83.071253,,,0,,,0
CASBAYN,3153,N CASSADY AVE & BAYLOR AVE,,40.013914,-82.929097,,,0,,,0
GRAPALS,5203,GRAHAM RD & PALMER RD SW,,39.948065,-82.796118,,,0,,,0
MCNEFFS,7626,MCNAUGHTEN RD & EFFINGHAM RD,,39.959431,-82.838155,,,0,,,0
CASBAYS,3174,N CASSADY AVE & BAYLOR AVE,,40.013361,-82.929237,,,0,,,0
MOUHIGW2,2386,W MOUND ST & S HIGHLAND AVE,,39.939676,-83.05867,,,0,,,0
TRAHAGE,5860,TRABUE RD & N HAGUE AVE,,39.992584,-83.092508,,,0,,,0
FRETHEW,3539,FREBIS AVE & THELMA B KEE,,39.93406,-82.952012,,,0,,,0
MOUHIGW1,1797,E MOUND ST & S HIGH ST,,39.954932,-82.99871,,,0,,,0
SUM7THS,1510,SUMMIT ST & E 7TH AVE,,39.99033,-83.001899,,,0,,,0
HAMSTOS,7359,N HAMILTON RD & STONERIDGE LN,,40.052635,-82.864029,,,0,,,0
SCHSUPS,7523,SCHWARZ SUPPLY SOURCE,GREEN POINTE DR S,39.846358,-82.908872,,,0,,,0
BROCENN,2997,BROADWAY & CENTRAL AVE,,39.897761,-83.080449,,,0,,,0
3RDSYCN,5090,S 3RD ST & E SYCAMORE ST,,39.949393,-82.995352,,,0,,,0
STEMORN,5987,STELZER RD & MORSE CROSSING,STELZER RD & MORSE XING,40.042871,-82.909198,,,0,,,0
INDSCHS,1480,INDIANOLA AVE & SCHREYER PL,,40.051899,-83.000181,,,0,,,0
MAIHAMW,2315,E MAIN ST & S HAMILTON RD,,39.955541,-82.876401,,,0,,,0
TRAWILW,3823,TRABUE RD & N WILSON RD,,39.987386,-83.108143,,,0,,,0
SULSOUW,4549,SULLIVANT AVE & S SOUTHAMPTON AVE,,39.943083,-83.087518,,,0,,,0
MAIHENE,3527,E MAIN ST & HENTZ DR,,39.954963,-82.81478,,,0,,,0
BROCENE,2668,W BROAD ST & S CENTRAL AVE,,39.957644,-83.037744,,,0,,,0
SOULOCN,4656,SOUTHFIELD DR & LOCKBERRY AVE,,39.902039,-82.961571,,,0,,,0
4THHANN,2252,S 4TH ST & HANFORD ST,,39.936429,-82.992494,,,0,,,0
3RDSYCS,5085,S 3RD ST & E SYCAMORE ST,,39.949152,-82.995501,,,0,,,0
HAMPOTN,4353,N HAMILTON RD & POTH RD,,39.980548,-82.872665,,,0,,,0
CEMLUXE,7308,CEMETERY RD & LUXAIR DR,,40.030116,-83.155878,,,0,,,0
MAIHAME,2307,E MAIN ST & S HAMILTON RD,,39.955398,-82.877192,,,0,,,0
MAIHENW,3210,E MAIN ST & HENTZ DR,,39.955124,-82.81465,,,0,,,0
BROCENW,2631,W BROAD ST & N CENTRAL AVE,,39.957711,-83.038489,,,0,,,0
GROHAME,6835,GROVES RD & HAMILTON RD,,39.930074,-82.87773,,,0,,,0
SULSOUE,2745,SULLIVANT AVE & S SOUDER AVE,,39.953161,-83.021841,,,0,,,0
RUHVIRW,4511,RUHL AVE & N VIRGINIA LEE RD,,39.977895,-82.917664,,,0,,,0
NORWILSN,2885,NORTHWEST BLVD & WILSHIRE DR,,40.009517,-83.057918,,,0,,,0
CHI4THW1,7282,CHITTENDEN AVE & N 4TH ST,,39.995402,-82.998793,,,0,,,0
5THKRUW,1657,E 5TH AVE & KRUMM AVE,,39.984723,-82.917568,,,0,,,0
HIG521S,1265,5211 N HIGH ST,,40.068938,-83.019253,,,0,,,0
GEOCASN,7398,GEORGESVILLE RD & CASINO SERVICE RD,,39.948683,-83.110851,,,0,,,0
BELBEL1W,3921,BELCHER DR & BELCHER CT,,40.056028,-82.964105,,,0,,,0
BROBEETW,2522,E BROAD ST & BEECHTREE RD,,39.974148,-82.89389,,,0,,,0
11TGRAW,1829,E 11TH AVE & N GRANT AVE,,39.994324,-82.995525,,,0,,,0
NORWILSS,1243,NORTHWEST BLVD & WILSHIRE DR,,40.009723,-83.058083,,,0,,,0
5THKRUE,4416,E 5TH AVE & KRUMM AVE,,39.984585,-82.917844,,,0,,,0
FAIBROS,4419,FAIRWAY BLVD & E BROAD ST,,39.975445,-82.876921,,,0,,,0
MORCHEE1,6704,MORSE RD & CHERRY BOTTOM RD,,40.056223,-82.886066,,,0,,,0
BRICMN,5164,BRICE RD & MAIN ST,,39.9531,-82.828767,,,0,,,0
ALUALUS,6402,ALUM CREEK DR & ALUM INDUSTRIAL DR N,,39.940678,-82.943606,,,0,,,0
MAICOON,1760,MAIZE RD & E COOKE RD,,40.047422,-82.988297,,,0,,,0
EMEGLEN,5766,EMERALD PKWY & GLENDON CT,,40.080668,-83.14131,,,0,,,0
TAYGAHS,7640,TAYLOR STATION RD & GAHANNA PKWY,,39.990401,-82.84163,,,0,,,0
BROWHIE,2663,W BROAD ST & WHITETHORNE AVE,,39.955668,-83.056952,,,0,,,0
BRO4THE,4136,E BROAD ST & S 4TH ST,,39.962579,-82.996409,,,0,,,0
CLEJACN,1091,CLEVELAND AVE & JACK GIBBS BLVD,,39.972493,-82.990132,,,0,,,0
NORENTE,3490,W NORTH BROADWAY & RIVERSIDE HOSP,,40.029301,-83.034629,,,0,,,0
WOOKENE,2132,WOODY HAYES DR & KENNY RD,,40.003191,-83.03334,,,0,,,0
MAICOOS,1784,MAIZE RD & E COOKE RD,,40.047925,-82.988417,,,0,,,0
ALUALUN,6313,ALUM CREEK DR & ALUM INDUSTRIAL DR N,,39.940747,-82.943402,,,0,,,0
SANWORN,7492,SANCUS BLVD & WORTHINGTON WOODS BLVD,,40.119374,-82.995326,,,0,,,0
DIEBETS,6866,DIERKER RD & BETHEL RD,DIERKER RD & HEDGEROW RD,40.063757,-83.075058,,,0,,,0
EAKHOLW,2406,EAKIN RD & HOLLY HILL DR,,39.939384,-83.10285,,,0,,,0
161KARW,7760,STATE RTE 161 & KARL RD,E DUBLIN-GRANVILLE RD & KARL RD,40.087324,-82.975638,,,0,,,0
LIVSHAE,1956,E LIVINGSTON AVE & SHADY LANE RD,,39.944362,-82.871636,,,0,,,0
NORCLAS,7848,NORTON RD & CLAIRBROOK AVE,,39.936207,-83.144255,,,0,,,0
SULCOUE,4059,SULLIVANT AVE & COUNTRYBROOK DR E,,39.938988,-83.116127,,,0,,,0
EAKHOLE,2418,EAKIN RD & HOLLY HILL DR,,39.939315,-83.102832,,,0,,,0
MCNGANN,7637,MCNAUGHTEN RD & GANSE,MCNAUGHTEN RD & SISTER NANCY GANSE LN,39.97745,-82.836306,,,0,,,0
NOESTRN,3531,NOE BIXBY RD & STRATFORD LN,,39.905827,-82.871346,,,0,,,0
WATMORE,5256,WATERBURY BLVD & MORRISON RD,,40.007647,-82.864186,,,0,,,0
12T153E,5742,153 W 12TH AVE - HALE HALL,,39.996733,-83.011432,,,0,,,0
LIVSHAW,1971,E LIVINGSTON AVE & SHADY LANE RD,,39.944474,-82.871041,,,0,,,0
MCNKNIN,7635,MCNAUGHTEN RD & KNIVERS EDGE WAY,MCNAUGHTEN RD & KINVER EDGE WAY,39.972898,-82.836698,,,0,,,0
SCAALSE,5064,SCARBOROUGH BLVD & ALSHIRE RD,,39.929032,-82.834382,,,0,,,0
NORSHAE,3489,W NORTH BROADWAY & SHATTUCK AVE,,40.029015,-83.042568,,,0,,,0
ARLWALS,1594,ARLINGTON AVE & WALTHAM RD,,39.997675,-83.061,,,0,,,0
GOVBRON,3559,GOVERNOR PL & E BROAD ST,,39.966513,-82.968453,,,0,,,0
PEN2NDS,1403,PENNSYLVANIA AVE & W 2ND AVE,,39.982386,-83.015621,,,0,,,0
AVEDAVN,5506,AVERY RD & DAVIDSON RD,,40.046777,-83.158399,,,0,,,0
JOY23RN,4072,JOYCE AVE & E 23RD AVE,,40.005509,-82.963676,,,0,,,0
ARL5THN,6597,ARLINGTON AVE & W 5TH AVE,,39.989308,-83.060029,,,0,,,0
ARL5THS,1598,ARLINGTON AVE & W 5TH AVE,,39.989231,-83.060186,,,0,,,0
HIGCOMN,1204,N HIGH ST & E COMO AVE,,40.028486,-83.014928,,,0,,,0
CLEDUXN,1110,CLEVELAND AVE & DUXBERRY AVE,,40.008692,-82.970345,,,0,,,0
MAIBROE1,2293,E MAIN ST & BROOKSIDE DR,,39.956578,-82.917553,,,0,,,0
BROOHIW,2546,E BROAD ST & N OHIO AVE,,39.965786,-82.970657,,,0,,,0
BROPARE,2484,E BROAD ST & PARK DR,,39.968475,-82.945113,,,0,,,0
NORSHAW,3423,W NORTH BROADWAY & SHATTUCK AVE,,40.029258,-83.042184,,,0,,,0
NORMORN,3913,NORTHTOWNE BLVD & MORSE RD,,40.060807,-82.961688,,,0,,,0
7THSTEE,1654,E 7TH AVE & STELZER RD,,39.98622,-82.913699,,,0,,,0
CLE3RDN,1095,CLEVELAND AVE & E 3RD AVE,,39.983318,-82.989321,,,0,,,0
LARSCHW,4666,LARRIMER AVE & SCHREINER ST W,,40.099661,-83.020799,,,0,,,0
SUM5THS,1511,SUMMIT ST & E 5TH AVE,,39.98671,-83.002122,,,0,,,0
GROWESW,3281,GROVEPORT RD & WEST ST,,39.844321,-82.811131,,,0,,,0
SMOHARN,4400,SMOKY ROW RD & HARD RD,,40.117773,-83.067226,,,0,,,0
SHABRON,3040,SHARON WOODS BLVD & BROOKHURST AVE,,40.103727,-82.963119,,,0,,,0
HIGMITN,2254,S HIGH ST & E MITHOFF ST,,39.938505,-82.996029,,,0,,,0
GOOYARW,2907,GOODALE BLVD & YARD ST,,39.974241,-83.023787,,,0,,,0
BREWOOS,1900,BRENTNELL AVE & WOODWARD AVE,,39.992036,-82.949948,,,0,,,0
LANNEIE,7539,W LANE AVE & NEIL AVE,,40.006144,-83.013788,,,0,,,0
SULWILW,4955,SULLIVANT AVE & N WILSON RD,,39.942763,-83.093953,,,0,,,0
BREWOON,1843,BRENTNELL AVE & WOODWARD AVE,,39.991938,-82.949824,,,0,,,0
SUMSAWW,7909,SUMMER DR & SAWMILL COMMONS LN,,40.120782,-83.085466,,,0,,,0
HIGRICN,4085,S HIGH ST & E RICH ST,,39.957314,-82.999596,,,0,,,0
SMOHARS,5244,SMOKY ROW RD & HARD RD,,40.116944,-83.067235,,,0,,,0
GENMEDW,3635,GENESSEE AVE & MEDINA AVE,,40.019133,-82.9745,,,0,,,0
TOWGRAW,2094,E TOWN ST & S GRANT AVE,,39.960003,-82.990213,,,0,,,0
GOOYARE,2947,GOODALE BLVD & YARD ST,,39.974163,-83.026091,,,0,,,0
BROBELW,2636,W BROAD ST & BELLE ST,W BROAD ST & S BELLE ST,39.961257,-83.0093,,,0,,,0
COLRICW,1309,COLUMBUS ST & RICHARD AVE,,39.88154,-83.080869,,,0,,,0
5THFAIE,1604,W 5TH AVE & FAIRVIEW AVE,,39.98888,-83.047631,,,0,,,0
BROLECE,2664,W BROAD ST & LECHNER AVE,,39.955864,-83.053095,,,0,,,0
OLEOLDEN,3521,OLENTANGY RIVER RD & OLDE TOWNE AVE,,40.058278,-83.034478,,,0,,,0
HAMLANS,2562,S HAMILTON RD & LANGLEY AVE,,39.95984,-82.876524,,,0,,,0
BROHARTW,5484,W BROAD ST & N HARTFORD AVE,,39.959431,-83.024263,,,0,,,0
HILRIDS,5254,HILLIARD PARK AND RIDE,,40.031393,-83.131162,,,0,,,0
SAI2NDS,3758,SAINT CLAIR AVE & E 2ND AVE,,39.981553,-82.980157,,,0,,,0
PARABES,3619,PARKWOOD AVE & ABERDEEN AVE,,40.020651,-82.95599,,,0,,,0
SINDUBS,7564,SINCLAIR RD & DUBLIN GRANDVILLE RD,SINCLAIR RD & E DUBLIN-GRANVILLE RD,40.087445,-82.997739,,,0,,,0
5THFAIW,1533,W 5TH AVE & FAIRVIEW AVE,,39.989,-83.047544,,,0,,,0
HIGBROMS,6653,HIGHFIELD DR & BROAD MEADOWS BLVD,,40.07373,-83.027797,,,0,,,0
HAMLANN,3938,S HAMILTON RD & LANGLEY AVE,,39.96002,-82.876287,,,0,,,0
OLEOLDES,3508,OLENTANGY RIVER RD & OLDE TOWNE AVE,,40.058596,-83.034747,,,0,,,0
BROLECW,2635,W BROAD ST & LECHNER AVE,,39.956042,-83.053535,,,0,,,0
NORBRIW,1906,NORTHTOWNE BLVD & BRITTANY RD,,40.068445,-82.961824,,,0,,,0
CLIHOLE,7804,CLIME RD & HOLLY HILL DR,,39.930161,-83.103007,,,0,,,0
NEIVINS,8010,NEIL AVE & VINE ST,,39.971021,-83.00958,,,0,,,0
RICMCDE,2462,W RICH ST & MCDOWELL ST,,39.955916,-83.012863,,,0,,,0
NORSULS,7852,NORTON RD & SULLIVANT AVE,,39.943798,-83.141959,,,0,,,0
CASSUNE,3166,N CASSADY AVE & SUNBURY RD,,40.026761,-82.932426,,,0,,,0
AMBSCHN,3996,AMBLESIDE DR & SCHROCK RD,,40.10497,-82.9783,,,0,,,0
BERRIDW,3236,WINCHESTER PIKE & BERWICK PARK AND RIDE,,39.915791,-82.91472,,,0,,,0
TOYALUE,7888,TOY RD & ALUM CREEK DR,,39.85227,-82.937437,,,0,,,0
REFBRIE,6954,REFUGEE RD & BRICE RD,,39.912717,-82.832576,,,0,,,0
CEMNORW,5557,CEMETERY RD & NORWICH ST,,40.030404,-83.153864,,,0,,,0
RICMCDW,7294,W RICH ST & MCDOWELL ST,,39.95605,-83.012844,,,0,,,0
WES199S,5367,1999 WESTBELT DR,,39.994564,-83.123717,,,0,,,0
MCNBASN,7630,MCNAUGHTEN & BASKERVILLE DR,MCNAUGHTEN RD & BASKERVILLE DR,39.966374,-82.837314,,,0,,,0
TOYALUW,7887,TOY RD & ALUM CREEK DR,,39.85244,-82.937615,,,0,,,0
STYGAMS,4377,N STYGLER RD & GAMEWOOD DR,,40.029679,-82.889763,,,0,,,0
KOEEDSW1,7291,KOEBEL RD & EDSEL AVE,,39.912433,-82.960326,,,0,,,0
REFBRIW,6958,REFUGEE RD & BRICE RD,,39.912878,-82.832552,,,0,,,0
5TH480W,5723,4800 E 5TH AVE,,39.986802,-82.873383,,,0,,,0
AMBSCHS,3978,AMBLESIDE DR & SCHROCK RD,,40.104964,-82.978433,,,0,,,0
ALUGRON,7064,ALUM CREEK DR & GROVEPORT RD,,39.86725,-82.935235,,,0,,,0
CAS5THS,3181,N CASSADY AVE & E 5TH AVE,,39.985403,-82.93154,,,0,,,0
COUDESS,4547,COURTRIGHT RD & E DESHLER AVE,,39.936435,-82.897786,,,0,,,0
SUMSUTW,7908,SUMMER DR & SUTTER PKWY,,40.121259,-83.083254,,,0,,,0
MCGOAKS,1807,MCGUFFEY RD & OAKLAND PARK AVE,,40.031479,-82.980703,,,0,,,0
KIMCOUE,2167,KIMBERLY PKWY N & COURTRIGHT RD,,39.921481,-82.89636,,,0,,,0
DAVSULN,2457,S DAVIS AVE & SULLIVANT AVE,,39.95372,-83.020362,,,0,,,0
KENKINS,3768,KENNY RD & KINNEAR RD,,39.998303,-83.034851,,,0,,,0
BRICARS,7688,BRITTON RD & CARRINGTON WAY,BRITTON PKWY & CARRINGTON WAY,40.057614,-83.136265,,,0,,,0
MCGOAKN,1740,MCGUFFEY RD & OAKLAND PARK AVE,,40.031606,-82.980545,,,0,,,0
COLOHUN,5933,S COLLEGE RD & W 12TH AVE,N COLLEGE RD & W 12TH AVE,39.997906,-83.009612,,,0,,,0
COUDESN,4343,COURTRIGHT RD & E DESHLER AVE,,39.936833,-82.897596,,,0,,,0
BROASHW,7514,E BROAD ST & N ASHBURTON RD,,39.972248,-82.911966,,,0,,,0
BROGRECN,5400,BROOKSEDGE BLVD & GREENCREST DR,,40.107801,-82.931393,,,0,,,0
KINKENE,3801,KING AVE & KENNY RD,,39.991206,-83.035616,,,0,,,0
SPRMARW,4176,W SPRING ST & MARCONI BLVD,,39.965987,-83.004625,,,0,,,0
BROEURW,2640,W BROAD ST & N EUREKA AVE,,39.955427,-83.065718,,,0,,,0
WEIWATS,7574,WEIRTON DR & WATKINS RD,,39.904255,-82.952798,,,0,,,0
COOSCHN,6559,COOPER RD & SCHROCK RD,,40.111271,-82.942799,,,0,,,0
HAMMACS,3909,S HAMILTON RD & MACSWAY AVE,,39.923247,-82.880068,,,0,,,0
CLEESSS,1158,CLEVELAND AVE & ESSEX AVE,,39.98779,-82.987898,,,0,,,0
HUN733N,6509,7330 HUNTINGTON PARK DR,,40.114384,-83.006167,,,0,,,0
209HIGE,7313,209 HIGHFIELD DR,,40.073123,-83.025054,,,0,,,0
CLIGEON,7818,CLIME RD & GEORGESVILLE RD,,39.932752,-83.115388,,,0,,,0
BRO4THW,7518,E BROAD ST & N 4TH ST,,39.962825,-82.996146,,,0,,,0
PARMORN,2822,PARSONS AVE & E MORRILL AVE,,39.929639,-82.983992,,,0,,,0
WEIWATN,7575,WEIRTON DR & WATKINS RD,,39.904513,-82.952562,,,0,,,0
SCHLAUW,6562,W SCHROCK RD & LAUFFER RD,,40.110941,-82.946131,,,0,,,0
GREGRON,8015,GREEN POINTE DR S & GROVEPORT RD,GREEN POINTE DR S & CLYDE MOORE DR,39.855669,-82.902557,,,0,,,0
CHALONN,7328,CHAMPION AVE & E LONG ST,,39.968956,-82.968282,,,0,,,0
LIN442N,2566,442 LINCOLNSHIRE RD,442 LINCOLNSHIRE RD & KENILWORTH CT,40.030561,-82.899158,,,0,,,0
NAG5THE,1780,E NAGHTEN ST & N 5TH ST,,39.968716,-82.995499,,,0,,,0
CLECOOS,3137,CLEVELAND AVE & E COOKE RD,,40.045064,-82.9581,,,0,,,0
HIGSELS,1260,N HIGH ST & W SELBY BLVD,,40.076818,-83.018842,,,0,,,0
LANWESE,3789,W LANE AVE & WESTMONT BLVD,,40.007145,-83.054593,,,0,,,0
WHI22NE,2757,E WHITTIER ST & S 22ND ST,,39.943613,-82.973459,,,0,,,0
WILVALN,7396,N WILSON RD & VALLEYVIEW DR,,39.962025,-83.092567,,,0,,,0
CLISAVW,7806,CLIME RD & SAVANNAH DR,,39.931207,-83.106883,,,0,,,0
WILVALS,7395,N WILSON RD & VALLEYVIEW DR,,39.961819,-83.092708,,,0,,,0
BARBROS,1887,BAR HARBOR RD & BROCTON RD,,40.010356,-82.942072,,,0,,,0
HIGSELN,1229,N HIGH ST & E SELBY BLVD,,40.077079,-83.018629,,,0,,,0
MCKCROS,6555,MCKITRICK BLVD & CROWN PARK CT,,40.065308,-83.070723,,,0,,,0
LANWESW,3779,W LANE AVE & WESTMONT BLVD,,40.00726,-83.054069,,,0,,,0
HIGMOUSC,3276,S HIGH ST & W MOUND ST,,39.844288,-82.805558,,,0,,,0
TAYLONS,7260,TAYLOR AVE & E LONG ST,,39.969491,-82.961613,,,0,,,0
HARBLUS,2966,HARRISBURG PIKE & BLUE ROCK BLVD,,39.911203,-83.069367,,,0,,,0
JAMELBS,4772,S JAMES RD & ELBERN AVE,,39.967678,-82.913955,,,0,,,0
FISKENW,3339,FISHINGER RD & KENNY RD,,40.023532,-83.043678,,,0,,,0
FUL3RDW,2017,E FULTON ST & S 3RD ST,,39.953864,-82.996165,,,0,,,0
BRO429E,2678,429 W BROAD ST,,39.960746,-83.011979,,,0,,,0
LONNELW,2186,E LONG ST & N NELSON RD,,39.969126,-82.951217,,,0,,,0
JAMELBN,4769,S JAMES RD & ELBERN AVE,,39.968148,-82.913691,,,0,,,0
HARBLUN,1313,HARRISBURG PIKE & BLUE ROCK BLVD,,39.910849,-83.069464,,,0,,,0
TRELANGN,1557,TREMONT RD & LANGHAM RD,,40.020418,-83.061514,,,0,,,0
KINOLEW,3818,KING AVE & OLENTANGY RIVER RD,,39.990966,-83.026604,,,0,,,0
TREKEYN,5263,3120 TREMONT RD,,40.02397,-83.058442,,,0,,,0
PARJENN,2824,PARSONS AVE & E JENKINS AVE,,39.933492,-82.983703,,,0,,,0
ARLEDGN,1543,ARLINGTON AVE & EDGEMONT RD,,39.996391,-83.060583,,,0,,,0
LIVCUNE,1947,E LIVINGSTON AVE & CUNARD RD,,39.94606,-82.901894,,,0,,,0
HIGCLAS,1301,N HIGH ST & CLARK PL,,39.988966,-83.005955,,,0,,,0
SULTERW,2706,SULLIVANT AVE & S TERRACE AVE,,39.944929,-83.066236,,,0,,,0
CLEINNN,4530,CLEVELAND AVE & INNIS RD,,40.037125,-82.96246,,,0,,,0
5THNEIW,1520,W 5TH AVE & NEIL AVE,,39.987437,-83.012906,,,0,,,0
HIG5THN,1184,N HIGH ST & E 5TH AVE,,39.987609,-83.005524,,,0,,,0
MAIRAVE,3286,MAIN ST & RAVER AL,MAIN ST & UNNAMED ALY,39.851996,-82.887095,,,0,,,0
MOURYAW,2379,W MOUND ST & RYAN AVE,,39.944557,-83.040436,,,0,,,0
HARBEEW,3923,HARBOR BLVD & BEECHTON RD,,39.902621,-82.866268,,,0,,,0
SMOQUEN,4398,SMOKY ROW RD & QUEENSBRIDGE DR,,40.108732,-83.065063,,,0,,,0
BROWAGE,6820,E BROAD ST & WAGGONER RD,,39.985209,-82.790515,,,0,,,0
HAMKINN,3931,S HAMILTON RD & KINGSLAND AVE,,39.926128,-82.879515,,,0,,,0
SMOQUES,5246,SMOKY ROW RD & QUEENSBRIDGE DR,,40.108592,-83.065135,,,0,,,0
JASOLEW,7421,JASONWAY AVE & OLENTANGY RIVER RD,JASONWAY AVE & MCKITRICK BLVD,40.055251,-83.034351,,,0,,,0
LIVBRIW,4025,E LIVINGSTON AVE & BRICE RD,,39.942184,-82.830486,,,0,,,0
BROGLEE,2671,W BROAD ST & S GLENWOOD AVE,,39.958556,-83.030116,,,0,,,0
MOURYAE,2447,W MOUND ST & RYAN AVE,,39.944354,-83.040742,,,0,,,0
HAREAKS1,2960,HARRISBURG PIKE & EAKIN RD,,39.931744,-83.048832,,,0,,,0
HIGWHIN,2257,S HIGH ST & E WHITTIER ST,,39.944217,-82.997042,,,0,,,0
HIGWHIS,2205,S HIGH ST & W WHITTIER ST,,39.944223,-82.997267,,,0,,,0
PARSYCN,2831,PARSONS AVE & SYCAMORE ST,,39.949553,-82.982476,,,0,,,0
BARLIVS,4839,BARNETT RD & E LIVINGSTON AVE,,39.945927,-82.906409,,,0,,,0
COULIVN1,7607,COURTRIGHT RD & E LIVINGSTON AVE,,39.944015,-82.896939,,,0,,,0
CHANMEIW,6829,CHANTRY DR AT 2ND SVC RD ENTRANCE,,39.924632,-82.835145,,,0,,,0
RICSTAE,2464,W RICH ST & STARLING ST,,39.956375,-83.008919,,,0,,,0
LIVPARW,2013,E LIVINGSTON AVE & PARSONS AVE,,39.95232,-82.983164,,,0,,,0
MCNOLDS,7628,MCNAUGHTEN RD & OLDE ORCHARD DR,,39.963875,-82.837752,,,0,,,0
BARLIVN,4744,BARNETT RD & E LIVINGSTON AVE,,39.946157,-82.906283,,,0,,,0
LIVPARE,1914,E LIVINGSTON AVE & PARSONS AVE,,39.95211,-82.98277,,,0,,,0
GREGROS,8014,GREEN POINTE DR S & GROVEPORT RD,GREEN POINTE DR S & CLYDE MOORE DR,39.855669,-82.902769,,,0,,,0
METCRPW,7107,METRO PL N & CROWN PLAZA,,40.096122,-83.13209,,,0,,,0
SMI900E,7375,9005 SMITHS MILL RD,9005 SMITH'S MILL RD N,40.091958,-82.744875,,,0,,,0
MAIBERW,2316,E MAIN ST & BERNHARD RD,,39.955657,-82.879891,,,0,,,0
CLELAKN,1119,CLEVELAND AVE & E LAKEVIEW AVE,,40.025778,-82.964395,,,0,,,0
TRABENW,5226,TRABUE RD & BENDELOW DR,,39.989514,-83.10183,,,0,,,0
AMBCARN,3993,AMBLESIDE DR & CARDWELL SQ N,,40.099133,-82.980646,,,0,,,0
MAIBERE,2306,E MAIN ST & BERNHARD RD,,39.955496,-82.880056,,,0,,,0
SUMALDS,1501,SUMMIT ST & ALDEN AVE,,40.007846,-83.000721,,,0,,,0
HIGSTAFN,1235,HIGH ST & STAFFORD AVE,,40.090752,-83.01787,,,0,,,0
MCGCOMS,1810,MCGUFFEY RD & E COMO AVE,,40.025701,-82.981291,,,0,,,0
NOR366W,6087,366 E NORTH BROADWAY,366 E NORTH BROADWAY ST,40.031413,-83.003938,,,0,,,0
BROBEETE,2502,E BROAD ST & BEECHTREE RD,,39.973919,-82.894701,,,0,,,0
NEIGOOS,1409,NEIL AVE & W GOODALE ST,,39.974442,-83.010669,,,0,,,0
TRABENE,5227,TRABUE RD & BENDELOW DR,,39.989346,-83.101894,,,0,,,0
BRIBIRE,7789,BRIGGS RD & S BRINKER AVE,,39.932524,-83.084952,,,0,,,0
CLELAKS,1137,CLEVELAND AVE & E LAKEVIEW AVE,,40.025441,-82.964577,,,0,,,0
1STLINW,2921,W 1ST AVE & LINCOLN RD,,39.982403,-83.056614,,,0,,,0
MAIFOUNE,2497,E MAIN ST & FOUNTAIN LN,,39.954873,-82.859638,,,0,,,0
NORGOOS,2946,NORTHWEST BLVD & GOODALE BLVD,,39.974842,-83.029264,,,0,,,0
JASKNIN,7425,JASONWAY AVE & KNIGHTSBRIDGE BLVD,,40.057928,-83.040909,,,0,,,0
MORSTEW,5978,MORSE CROSSING & STELZER RD,MORSE XING & STELZER ROAD,40.042478,-82.91016,,,0,,,0
CLE25TN,1109,CLEVELAND AVE & E 25TH AVE,,40.006947,-82.971424,,,0,,,0
SAWFEDN,7683,SAWMILL RD & FEDERATED BLVD,,40.102224,-83.091005,,,0,,,0
STEJAMN,4349,STELZER RD & N JAMES RD,,39.980285,-82.913096,,,0,,,0
WOOTULPE,3833,W WOODRUFF AVE & TUTTLE PARK PL,,40.004025,-83.01608,,,0,,,0
MORSTEE,5977,MORSE CROSSING & STELZER RD,MORSE XING & STELZER ROAD,40.042278,-82.910301,,,0,,,0
HAMGRAS1,7366,N HAMILTON RD & GRANVILLE ST,,40.017686,-82.866692,,,0,,,0
MACNUGW,3413,MACKENZIE DR & NUGENT DR,,40.052329,-83.073967,,,0,,,0
JASKNIS,7426,JASONWAY AVE & KNIGHTSBRIDGE BLVD,,40.058124,-83.041146,,,0,,,0
NORGOON,2908,NORTHWEST BLVD & GOODALE BLVD,,39.974832,-83.02899,,,0,,,0
OHIWHIS,3576,S OHIO AVE & E WHITTIER ST,,39.943761,-82.971989,,,0,,,0
FREPARW,2157,FREBIS AVE & PARSONS AVE,,39.935536,-82.983382,,,0,,,0
SULDEXE,2720,SULLIVANT AVE & DEXTER AVE,,39.942938,-83.08799,,,0,,,0
5THSEAPW,5855,W 5TH AVE & SEAPORT,2550 W 5TH AVE & MCKINLEY AVE,39.985583,-83.07378,,,0,,,0
LIVLONE,3188,E LIVINGSTON AVE & LONSDALE RD,,39.94315,-82.850289,,,0,,,0
MCKYALE,4131,MCKINLEY AVE & N YALE AVE,,39.96334,-83.033499,,,0,,,0
NORNORTN,3781,NORTHWEST BLVD & NORTHAM RD,,40.011664,-83.057797,,,0,,,0
KAR602N,3970,6024 KARL RD,,40.090261,-82.975397,,,0,,,0
FREPARE,2109,FREBIS AVE & PARSONS AVE,,39.935431,-82.983818,,,0,,,0
NORNORTS,2853,NORTHWEST BLVD & NORTHAM RD,,40.01193,-83.057937,,,0,,,0
GENCLEE,3614,GENESSEE AVE & CLEVELAND AVE,,40.018637,-82.965325,,,0,,,0
LIV22NE,1918,E LIVINGSTON AVE & S 22ND ST,,39.949746,-82.972636,,,0,,,0
SEEMEAE,6376,SEEDS RD & S MEADOWS RD,SEEDS RD & MEADOWS DR,39.838947,-83.08508,,,0,,,0
HIG205N,2245,2050 S HIGH ST,2050 Unit KINGSTON,39.919658,-82.995279,,,0,,,0
MCKYALW,4189,MCKINLEY AVE & N YALE AVE,,39.963424,-83.033408,,,0,,,0
ARLCHES,1597,ARLINGTON AVE & W CHELSEA RD,,39.991432,-83.060346,,,0,,,0
COUBEN2S,1969,COUNTRY CLUB RD & S BENSON DR,,39.945236,-82.86805,,,0,,,0
WESEQUS,5368,WESTBELT DR & EQUITY DR,,39.988074,-83.125133,,,0,,,0
AGL343E,5885,3433 AGLER RD,AGLER RD & GREENLEE RD,40.020615,-82.919016,,,0,,,0
GRECLIE,7897,GREENWAY AVE & CLIFTON AVE,GREENWAY AVE S & CLIFTON AVE,39.971406,-82.949929,,,0,,,0
KAR161N,3969,KARL RD & STATE ROUTE 161,,40.088,-82.975155,,,0,,,0
TRAWESW,6417,TRABUE RD & WESTBELT DR,,39.984516,-83.123363,,,0,,,0
FRA161S,5739,FRANTZ RD & W BRIDGE ST,,40.098426,-83.124882,,,0,,,0
BRO4158W,4242,4158 W BROAD ST,4158 W BROAD ST & NATIONWIDE BLVD,39.953242,-83.111634,,,0,,,0
AGLWESW,4693,AGLER RD & WESTERVILLE RD,,40.027341,-82.959176,,,0,,,0
RIDSOME,1576,RIDGECLIFF RD & SOMERFORD RD,,40.022595,-83.063001,,,0,,,0
LIN161S,5707,LINWORTH RD & STATE ROUTE 161,,40.089889,-83.049602,,,0,,,0
PARWILN,2810,PARSONS AVE & WILLIAMS RD,,39.891621,-82.986899,,,0,,,0
LIN161N,3502,LINWORTH RD & STATE ROUTE 161,,40.089908,-83.049451,,,0,,,0
HIGFAISF,3273,HIGH ST & W FAIRFIELD ST,,39.849345,-82.804739,,,0,,,0
REYRIDSW,3522,REYNOLDSBURG PARK & RIDE,2100 BIRCHVIEW DR & REYNOLDSBURG P & R,39.939285,-82.827489,,,0,,,0
RIDSOMW,1559,RIDGECLIFF RD & SOMERFORD RD,,40.022694,-83.063418,,,0,,,0
FRA161N,5320,FRANTZ RD & W BRIDGE ST,,40.098424,-83.124576,,,0,,,0
HIGFAISN,6626,HIGH ST & W FAIRFIELD ST,,39.850095,-82.8046,,,0,,,0
KAR161S,4003,KARL RD & STATE ROUTE 161,,40.087952,-82.975345,,,0,,,0
SOUTER7,427,COTA TRANSIT TERMINAL BAY 7,COTA SOUTH TERMINAL SOUTHBOUND PATH & E MAIN ST,39.956717,-82.998851,,,0,,,0
SOUTER6,478,COTA TRANSIT TERMINAL BAY 6,COTA SOUTH TERMINAL NORTHBOUND PATH & E MAIN ST,39.956878,-82.998969,,,0,,,0
SOUTER5,524,COTA TRANSIT TERMINAL BAY 5,COTA SOUTH TERMINAL SOUTHBOUND PATH & E RICH ST,39.956931,-82.998899,,,0,,,0
SOUTER4,411,COTA TRANSIT TERMINAL BAY 4,COTA SOUTH TERMINAL NORTHBOUND PATH & E RICH ST,39.957065,-82.999017,,,0,,,0
SOUTER3,467,COTA TRANSIT TERMINAL BAY 3,COTA SOUTH TERMINAL SOUTHBOUND PATH & E RICH ST,39.957128,-82.998935,,,0,,,0
SOUTER2,388,COTA TRANSIT TERMINAL BAY 2,COTA SOUTH TERMINAL NORTHBOUND PATH & E RICH ST,39.95727,-82.999053,,,0,,,0
STEOPPS,6179,STELZER RD & CODET RD,,40.025331,-82.911042,,,0,,,0
NOR411E,6074,411 E NORTH BROADWAY,411 E NORTH BROADWAY ST,40.031314,-83.004264,,,0,,,0
WHILINW,2770,E WHITTIER ST & LINWOOD AVE,,39.943368,-82.96615,,,0,,,0
SUM9THS,7299,SUMMIT ST & E 9TH AVE,,39.99227,-83.001771,,,0,,,0
SOUTER8,498,COTA TRANSIT TERMINAL BAY 8,COTA SOUTH TERMINAL NORTHBOUND PATH & E MAIN ST,39.956655,-82.998934,,,0,,,0
LIVKELE1,1942,E LIVINGSTON AVE & S KELLNER RD,,39.946922,-82.917413,,,0,,,0
COL12THS,6696,COLLEGE RD & 12TH AVE,N COLLEGE RD & W 12TH AVE,39.997793,-83.009775,,,0,,,0
MAIPARKW,2340,E MAIN ST & S PARKVIEW AVE,,39.957391,-82.942165,,,0,,,0
LEOTAYE,5652,LEONARD AVE & OSU CAREPOINT EAST,,39.979117,-82.962875,,,0,,,0
OHIMOOS,3572,S OHIO AVE & MOOBERRY ST,,39.953041,-82.971293,,,0,,,0
MORHEMN,7386,MORRISON RD & HEMSTON DR,,40.008752,-82.864895,,,0,,,0
NEIOAKN,6674,NEIL AVE & OAKLAND AVE,,40.009197,-83.013641,,,0,,,0
INNDERW,3940,INNIS RD & DERBYSHIRE DR,,40.037304,-82.958725,,,0,,,0
WEBMEDW,3692,E WEBER RD & MEDINA AVE,,40.023202,-82.973776,,,0,,,0
BRE5THS,6764,BRENTNELL AVE & 5TH AVE,,39.986355,-82.950432,,,0,,,0
TAYOPPN,4281,TAYLOR STATION RD & BELLTOWNE BLVD,,39.985846,-82.842949,,,0,,,0
INNDERE,1125,INNIS RD & DERBYSHIRE DR,,40.037124,-82.958278,,,0,,,0
HAMROCS,7367,N HAMILTON RD & ROCKY FORK BLVD,,40.013634,-82.867114,,,0,,,0
LONBRUE,6621,E LONG ST & BRUNSON AVE,,39.968742,-82.953763,,,0,,,0
5THWALE1,7379,E 5TH AVE & WALTERS ST,,39.986158,-82.983347,,,0,,,0
WEBMEDE,3686,E WEBER RD & MEDINA AVE,,40.0231,-82.974008,,,0,,,0
HIGROYN1,6372,N HIGH ST & E ROYAL FOREST BLVD,,40.060876,-83.019475,,,0,,,0
WESEMRS,3120,WESTERVILLE RD & EMRICK RD,,40.095516,-82.925489,,,0,,,0
MOUCLAE,2440,W MOUND ST & CLARENDON AVE,,39.9402,-83.056159,,,0,,,0
WATCODNE,5258,WATERBURY BLVD & CODRINGTON CIR,,40.009305,-82.859521,,,0,,,0
5THLEONE,1640,E 5TH AVE & LEONARD AVE,,39.984987,-82.956336,,,0,,,0
REFCITE,3242,REFUGEE RD & CITIZENS PL,,39.915317,-82.878453,,,0,,,0
BRIROSDN,5170,BRICE RD & ROSEDALE AVE,,39.969274,-82.826759,,,0,,,0
WHIMILE,2762,E WHITTIER ST & MILLER AVE,,39.943148,-82.962439,,,0,,,0
GRE583N,8016,GREEN POINTE DR S & COMMERCE CENTER DR,GREEN POINTE DR S & CLYDE MOORE DR,39.847547,-82.904899,,,0,,,0
MOUCLAW,6805,MOUND ST & CLARENDON AVE,,39.940321,-83.056244,,,0,,,0
BRIROSDS,5176,BRICE RD & ROSEDALE AVE,,39.968968,-82.827,,,0,,,0
MORHEATE,7105,MORSE RD & HEATON RD,,40.060118,-82.966678,,,0,,,0
5THLEONW,1668,E 5TH AVE & LEONARD AVE,,39.986238,-82.95283,,,0,,,0
CLEHUDS,1143,CLEVELAND AVE & E HUDSON ST,,40.013425,-82.967624,,,0,,,0
HAMKAEN,2569,S HAMILTON RD & KAE AVE,,39.962801,-82.876061,,,0,,,0
TAY926N,5665,926 TAYLOR STATION RD,,39.993036,-82.839561,,,0,,,0
NORWILLS,6604,NORTHWEST BLVD & WILLIAMS AVE,,39.977998,-83.030169,,,0,,,0
NORCHASE,2865,NORTHWEST BLVD & CHAMBERS RD,,39.993457,-83.041924,,,0,,,0
MORFOSW,1465,MORSE RD & FOSTER ST,,40.062298,-83.014237,,,0,,,0
TOWPRIW,4557,W TOWN ST & S PRINCETON AVE,,39.954696,-83.034217,,,0,,,0
HIG15TS,1295,N HIGH ST & E 15TH AVE,,39.999731,-83.008093,,,0,,,0
STE17TN,5704,STELZER RD & 17TH AVE,,39.997008,-82.913088,,,0,,,0
MORFOSE,1470,MORSE RD & FOSTER ST,,40.062158,-83.014094,,,0,,,0
STE17TS,5691,STELZER RD & 17TH AVE,,39.996987,-82.913359,,,0,,,0
TOWPRIE,4566,W TOWN ST & S PRINCETON AVE,,39.954639,-83.033758,,,0,,,0
FRAMCGSE,5335,FRANTZ RD & MCGRATH DR,,40.069464,-83.116489,,,0,,,0
SULCATW,2697,SULLIVANT AVE & CATHERINE ST,,39.94936,-83.04266,,,0,,,0
NORWILLN,2910,NORTHWEST BLVD & WILLIAMS AVE,,39.977925,-83.02979,,,0,,,0
MAIOAKW,6354,E MAIN ST & OAK VALLEY RD,,39.955741,-82.787475,,,0,,,0
HAMCHEN,6706,N HAMILTON RD & CHESTNUT HILL DR,,40.056779,-82.863478,,,0,,,0
SHA161N,3034,SHARON WOODS BLVD & STATE ROUTE 161,,40.087678,-82.96941,,,0,,,0
GRO470SE,6281,4700 GROVEPORT RD,,39.873061,-82.943452,,,0,,,0
BRO675S,5405,675 BROOKSEDGE BLVD,,40.107878,-82.931705,,,0,,,0
SUM18TS,1504,SUMMIT ST & E 18TH AVE,SUMMIT ST & ALY,40.001741,-83.001135,,,0,,,0
REINHAE,5087,REINHARD AVE & S 3RD ST,,39.943134,-82.9939,,,0,,,0
WES161N,3095,WESTERVILLE RD & STATE ROUTE 161,,40.081295,-82.928354,,,0,,,0
OAKDOUW,2053,OAK ST & S DOUGLAS ST,,39.96305,-82.977833,,,0,,,0
GATAGLS,3173,GATEWOOD RD & AGLER RD,,40.021126,-82.9234,,,0,,,0
MOU5THW1,7400,E MOUND ST & S 5TH ST,,39.955797,-82.991303,,,0,,,0
HIG4THN,1183,N HIGH ST & E 4TH AVE,,39.985183,-83.005031,,,0,,,0
NELCLIS,4314,N NELSON RD & CLIFTON AVE,,39.97099,-82.949444,,,0,,,0
REINHAW,5088,REINHARD AVE & S 3RD ST,,39.943237,-82.994001,,,0,,,0
DUBHAYN,7708,DUBLIN RD & HAYDEN RUN RD,,40.067597,-83.112517,,,0,,,0
GROMARNW,4899,GROVEPORT RD & MARSHALL AVE,,39.884826,-82.952785,,,0,,,0
SHA161S,3051,SHARON WOODS BLVD & STATE ROUTE 161,,40.087557,-82.96969,,,0,,,0
OAKGARW,2054,OAK ST & S GARFIELD AVE,,39.963165,-82.980719,,,0,,,0
SULWHIW,2702,SULLIVANT AVE & WHITETHORNE AVE,,39.946867,-83.055911,,,0,,,0
AGLPENW,1867,AGLER RD & PENDLETON PL,,40.021088,-82.926409,,,0,,,0
KINNORE,3799,KING AVE & NORTHWEST BLVD,,39.991362,-83.039978,,,0,,,0
BRIRUGS,5175,BRICE RD & RUGOSA AVE,,39.973,-82.826625,,,0,,,0
5THSTERW,1658,E 5TH AVE & STERLING AVE,,39.9848,-82.92061,,,0,,,0
BRI622N,5169,622 BRICE RD,,39.968207,-82.827797,,,0,,,0
CHASHAE,4039,CHASE RD & SHARON PARK AVE,,40.075994,-83.008029,,,0,,,0
BLARINN,6571,BLAZER PKWY & RINGS RD,,40.083338,-83.13022,,,0,,,0
AGLPENE,3156,AGLER RD & PENDLETON PL,,40.020962,-82.926823,,,0,,,0
BLARINS,6572,BLAZER PKWY & RINGS RD,,40.083503,-83.130513,,,0,,,0
POLSTAE,7894,POLARIS PKWY & N STATE ST,,40.147205,-82.924449,,,0,,,0
GENPRIW,7015,GENDER RD T C & PRIVATE DR,,39.906842,-82.823043,,,0,,,0
BRIRUGN,5171,BRICE RD & RUGOSA AVE,,39.973161,-82.826456,,,0,,,0
SKYSCHS,7053,SKYWAE DR & SCHROCK RD,,40.105717,-82.969508,,,0,,,0
309ROH,7525,3099 ROHR RD,,39.841313,-82.916721,,,0,,,0
BRICORE,7714,W BRIDGE ST & CORBIN MILL DR,W BRIDGE ST & CORBINS MILL DR,40.099115,-83.120342,,,0,,,0
NOR460S,3061,4600 NORTHTOWNE BLVD,,40.063443,-82.959885,,,0,,,0
AMBWHIS,3984,AMBLESIDE DR & WHITBY SQ S,,40.091675,-82.979567,,,0,,,0
SHAMEAS,7945,SHARON WOODS BLVD & MEANDER DR,,40.097849,-82.962864,,,0,,,0
SHAHAMN,3035,SHARON WOODS BLVD & HAMPSTEAD DR,,40.090401,-82.97032,,,0,,,0
OSB5THN,4427,OSBORN AVE & E 5TH AVE,,39.985071,-82.912528,,,0,,,0
GATAMAS,7949,GATEWAY CT & AMAZON DR,,39.848474,-82.928165,,,0,,,0
PARMOCS,7832,PARKWOOD AVE & MOCK RD,,40.012001,-82.956704,,,0,,,0
GANOHIS,5883,GANTZ RD & OHIO DR,GANTZ RD W & OHIO DR,39.880965,-83.05603,,,0,,,0
OSB5THS,1655,OSBORN AVE & E 5TH AVE,,39.984802,-82.912771,,,0,,,0
2120CREE,8041,2120 CREEKSIDE PKWY,CREEKSIDE PKWY & BIXBY RD,39.840393,-82.949687,,,0,,,0
LANTOMN,5309,LANCASTER AVE & TOMAHAWK TRAIL,,39.976711,-82.811443,,,0,,,0
US6OLDW,7655,US 62 & OLD RIDENOUR RD,US 62 & OLDE RIDENOUR RD,40.018934,-82.882543,,,0,,,0
HAM20TN,7279,HAMILTON AVE & E 20TH AVE,,40.003783,-82.979639,,,0,,,0
LIVMAYW,1996,E LIVINGSTON AVE & MAYFIELD PL,,39.948295,-82.941002,,,0,,,0
KENMILN,3429,KENNY RD & MILLCREEK LN,,40.036443,-83.050656,,,0,,,0
MORSTYW,6207,MORSE RD & N STYGLER RD,,40.056697,-82.890741,,,0,,,0
US6OLDE,7656,US 62 & OLD RIDENOUR RD,US 62 & OLDE RIDENOUR RD,40.018755,-82.883914,,,0,,,0
MAIMOON,4665,MAIZE RD & MOON RD,,40.039137,-82.988989,,,0,,,0
WATDUNS1,4865,WATERBURY BLVD & DUNOON DR,,40.009419,-82.859532,,,0,,,0
HIGWESS,1275,N HIGH ST & WESTWOOD RD,,40.046871,-83.020053,,,0,,,0
LIVMAYE,6091,E LIVINGSTON AVE & MAYFIELD PL,,39.94815,-82.941161,,,0,,,0
CLEBELLN,3073,CLEVELAND AVE & BELLA VIA AVE,,40.096026,-82.95013,,,0,,,0
MYRBREW,1861,MYRTLE AVE & BRENTNELL AVE,,40.016387,-82.948213,,,0,,,0
KINOLEE,3804,KING AVE & OLENTANGY RIVER RD,,39.990867,-83.027099,,,0,,,0
MORCLEW,5970,MORSE RD & CLEVELAND AVE,,40.059717,-82.954673,,,0,,,0
HENOLEE,4681,W HENDERSON RD & OLENTANGY RIVER RD,,40.051865,-83.033128,,,0,,,0
STY124N,2620,124 S STYGLER RD,,40.017257,-82.890527,,,0,,,0
CLEAGLN,6054,CLEVELAND AVE & AGLER RD,,40.027318,-82.964267,,,0,,,0
HIGJENN,3271,N HIGH ST & JENNINGS DR,,39.847493,-82.804946,,,0,,,0
HIGERIS,4203,N HIGH ST & ERIE RD,,40.038073,-83.017682,,,0,,,0
MAICOLLW,3290,MAIN ST & COLLEGE ST,,39.851939,-82.886196,,,0,,,0
ZOLBRAE,3342,ZOLLINGER RD & BRANDON RD,,40.018653,-83.056363,,,0,,,0
FRESTUW,2150,FREBIS AVE & STUDER AVE,,39.934698,-82.965863,,,0,,,0
REFWEYE,3239,REFUGEE RD & WEYBURN RD,,39.916702,-82.903389,,,0,,,0
MORCLEE,5955,MORSE RD & CLEVELAND AVE,,40.059393,-82.952195,,,0,,,0
HENOLEW,4683,W HENDERSON RD & OLENTANGY RIVER RD,,40.052075,-83.034505,,,0,,,0
WHIOPPE,2756,E WHITTIER ST & CARPENTER ST,,39.943714,-82.975339,,,0,,,0
JOYHUDN,4075,JOYCE AVE & E HUDSON ST,,40.012913,-82.961409,,,0,,,0
MEDCCE,6000,MEDICAL CENTER DR & CANNON DR,,39.992279,-83.019341,,,0,,,0
NOTKIOE,7237,NOTTINGHAM RD & KIOKA AVE,,40.02563,-83.083859,,,0,,,0
FREGILW,2154,FREBIS AVE & GILBERT ST,,39.935152,-82.975271,,,0,,,0
NORGRES1,7857,NORTON RD & GREEN ST,,39.950809,-83.139825,,,0,,,0
HUTHIGE,7261,HUTCHINSON AVE & HIGH CROSS BLVD,,40.113712,-83.012237,,,0,,,0
OBESOUE,4638,OBETZ RD & SOUTHPOINT BLVD,,39.882082,-82.9985,,,0,,,0
NOTKIOW,3623,NOTTINGHAM RD & KIOKA AVE,,40.025712,-83.08395,,,0,,,0
FREGILE,7286,FREBIS AVE & GILBERT ST,,39.935053,-82.975162,,,0,,,0
HENDIEW1,7764,W HENDERSON RD & DIERKER RD,,40.057215,-83.075097,,,0,,,0
NEIOPPS,1702,NEIL AVE & W 11TH AVE,,39.995308,-83.014715,,,0,,,0
OAKLESE,2026,OAK ST & LESTER DR,,39.962752,-82.983762,,,0,,,0
AMBDRYN,3991,AMBLESIDE DR & DRYSDALE SQ S,,40.095003,-82.983349,,,0,,,0
MOUBUTE,2441,W MOUND ST & BUTLER AVE,,39.940875,-83.053769,,,0,,,0
PERDENS,4699,PERDUE AVE & DENUNE AVE,,40.022238,-82.95223,,,0,,,0
MAIKARW,2320,E MAIN ST & KARL ST,,39.955909,-82.889028,,,0,,,0
OLERIVN,4453,OLENTANGY RIVER RD & RIVERVIEW,OLENTANGY RIVER RD & RIVERVIEW DR,40.024336,-83.025947,,,0,,,0
CLELINN,1117,CLEVELAND AVE & LINDEN PL,,40.020066,-82.964835,,,0,,,0
FIS369S,5497,3693 FISHINGER BLVD,,40.02901,-83.117207,,,0,,,0
WHISEYW1,7977,E WHITTIER ST & SEYMOUR AVE,,39.943084,-82.955078,,,0,,,0
AMBDRYS,3983,AMBLESIDE DR & DRYSDALE SQ S,,40.094648,-82.983814,,,0,,,0
PERDENN,4698,PERDUE AVE & DENUNE AVE,,40.021879,-82.952105,,,0,,,0
SAWSAWN,7685,SAWMILL RD & SAWMILL PLACE BLVD,,40.09993,-83.091081,,,0,,,0
GRA152W,4900,152 GRACELAND BLVD WEST,,40.065997,-83.023465,,,0,,,0
580GRE,7524,5800 GREEN POINT DR S,GREEN POINTE DR S & CLYDE MOORE DR,39.855695,-82.902557,,,0,,,0
SULNASW,2700,SULLIVANT AVE & NASHOBA AVE,,39.947864,-83.050629,,,0,,,0
MAIKARE,2302,E MAIN ST & KARL ST,,39.955762,-82.889033,,,0,,,0
8860SMIT,8036,8860 SMITHS MILL RD,INNOVATION SRV RD,40.089342,-82.750321,,,0,,,0
EASSUNW,7459,EASTON WAY & SUNBURY RD,EASTON WAY & E GATES ST,40.049835,-82.928007,,,0,,,0
PARBROW,2996,PARLIN DR & BROADWAY,,39.89551,-83.081867,,,0,,,0
CENRICN,4564,S CENTRAL AVE & W RICH ST,,39.953327,-83.037201,,,0,,,0
MOUBELW,2384,W MOUND ST & BELVIDERE AVE,,39.941361,-83.052408,,,0,,,0
COUKIMWN,4728,COURTRIGHT RD & KIMBERLY DR W,,39.919375,-82.896636,,,0,,,0
FAIFABN,2140,FAIRWOOD AVE & FABER AVE,,39.908535,-82.957028,,,0,,,0
TAYMTVS,7618,TAYLOR AVE  & MT VERNON AVE,,39.974317,-82.961249,,,0,,,0
HIGGLENN,1209,N HIGH ST & GLENCOE RD,,40.037462,-83.017317,,,0,,,0
HAMSWAS,2619,N HAMILTON RD & SWANSON AVE,,39.998493,-82.868421,,,0,,,0
BUTNEIEN,1407,BUTTLES AVE & NEIL AVE,,39.977415,-83.011463,,,0,,,0
FAIFABS,2128,FAIRWOOD AVE & FABER AVE,,39.908924,-82.957155,,,0,,,0
PARBROE,6968,PARLIN DR & WILLOWOOD PL,,39.895207,-83.081367,,,0,,,0
CENRICS,4559,S CENTRAL AVE & W RICH ST,,39.95294,-83.037259,,,0,,,0
JAEGATN,7284,JAEGER ST & E GATES ST,,39.937466,-82.990715,,,0,,,0
BUTNEIEF,6035,BUTTLES AVE & NEIL AVE,,39.977398,-83.010648,,,0,,,0
SHAFAIN,3036,SHARON WOODS BLVD & FAIRHAVEN RD,,40.093158,-82.969652,,,0,,,0
HAM559S,7364,559 N HAMILTON RD,,40.031386,-82.865593,,,0,,,0
CLEORMN,3777,CLEVELAND AVE & ORMOND AVE,,40.047157,-82.955806,,,0,,,0
INDSCHN1,7298,INDIANOLA AVE & E SCHREYER PL,,40.051973,-83.000031,,,0,,,0
5THPERW,1523,W 5TH AVE & PERRY ST,,39.987637,-83.018613,,,0,,,0
GEOHALN,6454,GEORGESVILLE RD & HALL RD,,39.929542,-83.116394,,,0,,,0
EDG5TH,8012,EDGEHILL RD & W 5TH AVE,,39.987623,-83.029298,,,0,,,0
HAR111S,2959,1117 HARRISBURG PIKE,,39.933384,-83.046745,,,0,,,0
GEOHALS,6453,GEORGESVILLE RD & HALL RD,,39.929345,-83.116753,,,0,,,0
5THPERE,1614,W 5TH AVE & PERRY ST,,39.987561,-83.019056,,,0,,,0
MAIIDLE,3518,E MAIN ST & IDLEWILD DR,,39.954708,-82.831149,,,0,,,0
MAIEASW,2331,E MAIN ST & EASTMOOR BLVD,,39.95676,-82.918595,,,0,,,0
KAR603S,3356,6035 KARL RD,,40.090465,-82.975471,,,0,,,0
CLEORMS,1836,CLEVELAND AVE & ORMOND AVE,,40.046914,-82.956311,,,0,,,0
SULINAE,6756,SULLIVANT AVE & INAH AVE,,39.942834,-83.137978,,,0,,,0
TUTWALE,5775,TUTTLE CROSSING WAL-MART,TUTTLE CROSSING ENT 0 & TUTTLE CROSSING SVC 0,40.073001,-83.137328,,,0,,,0
LIVCOLW,1994,E LIVINGSTON AVE & COLLEGE AVE,,39.948101,-82.936901,,,0,,,0
TOWDAVE,4572,W TOWN ST & S DAVIS AVE,,39.95613,-83.021096,,,0,,,0
RIDREDE,1574,RIDGECLIFF RD & REDDING RD,,40.02289,-83.069173,,,0,,,0
SMOSTOS,5241,SMOKY ROW RD & STOWBRIDGE RD,,40.128688,-83.069918,,,0,,,0
5THFIEW,3735,E 5TH AVE & FIELDS AVE,,39.986614,-82.991823,,,0,,,0
HILSPRN,5904,HILLIARD ROME RD & SPRINGDALE BLVD,,40.013624,-83.153195,,,0,,,0
LIVCOLE,1933,E LIVINGSTON AVE & COLLEGE AVE,,39.947926,-82.936419,,,0,,,0
SULINAW,6757,SULLIVANT AVE & INAH AVE,,39.943024,-83.138614,,,0,,,0
OAKLESW,2056,OAK ST & LESTER DR,,39.962858,-82.9837,,,0,,,0
TOWDAVW,2369,W TOWN ST & S DAVIS AVE,,39.956213,-83.021285,,,0,,,0
RIDREDW,1105,RIDGECLIFF RD & REDDING RD,,40.023016,-83.070025,,,0,,,0
SULWESW1,6758,SULLIVANT AVE & WESTWOODS BLVD,,39.94459,-83.147187,,,0,,,0
MAIKENW,2333,E MAIN ST & KENWICK RD,,39.956885,-82.923679,,,0,,,0
5THFIEE,3750,E 5TH AVE & FIELDS AVE,,39.986515,-82.992493,,,0,,,0
5054PARW,7920,5054 PARKCENTER AVE,PARKCENTER AVE & MORSE CROSSING,40.07921,-83.125546,,,0,,,0
NORTAMN,7202,NORTHTOWNE BLVD & TAMARACK CIR,NORTHTOWNE BLVD & TAMARACK CIR E,40.075509,-82.965123,,,0,,,0
BUTNEIWF,1319,BUTTLES AVE & NEIL AVE,,39.977516,-83.011616,,,0,,,0
CLECORN,1111,CLEVELAND AVE & CORDELL AVE,,40.011141,-82.968854,,,0,,,0
STACHES,3117,S STATE ST & CHERRINGTON RD,,40.114206,-82.927396,,,0,,,0
LONOHIE,2175,E LONG ST & N OHIO AVE,,39.968428,-82.970117,,,0,,,0
BUTNEIWN,6034,BUTTLES AVE & NEIL AVE,,39.977494,-83.010902,,,0,,,0
RIC3RDW,7165,E RICH ST & S 3RD ST,,39.957893,-82.996855,,,0,,,0
STADHARS,7127,STADIUM DR & HARLEY DR,,40.02152,-83.027549,,,0,,,0
SULNORW,7754,SULLIVANT AVE & NORTON RD,,39.943735,-83.142112,,,0,,,0
STACHEN,3101,S STATE ST & CHERRINGTON RD,,40.113928,-82.927039,,,0,,,0
HAGELS,5362,N HAGUE AVE & EL PASO DR,,39.977031,-83.083851,,,0,,,0
LONOHIW,2194,E LONG ST & N OHIO AVE,,39.968598,-82.969805,,,0,,,0
CLECORS,1144,CLEVELAND AVE & CORDELL AVE,,40.010981,-82.969128,,,0,,,0
SULNORE,7756,SULLIVANT AVE & NORTON RD,,39.94346,-83.141532,,,0,,,0
MORMOXW,5959,MORSE RD & MORSE CROSSING,,40.058154,-82.919168,,,0,,,0
BRYFAIW,2041,BRYDEN RD & FAIRWOOD AVE,,39.960189,-82.952495,,,0,,,0
COPSCHS,6787,COOPER RD & SCHROCK RD,,40.111213,-82.942931,,,0,,,0
CHAFLEE,6953,CHATTERTON RD & FLEET RD,,39.914381,-82.856286,,,0,,,0
WHIPEAE,2748,E WHITTIER ST & S PEARL ST,,39.943903,-82.996285,,,0,,,0
SAN866N,7482,8664 SANCUS BLVD,,40.140558,-82.991316,,,0,,,0
MAIDREE,2285,E MAIN ST & S DREXEL AVE,,39.957103,-82.937835,,,0,,,0
LIVWESW,1975,E LIVINGSTON AVE & WESTPHAL AVE,,39.945181,-82.883452,,,0,,,0
STEJOHTN,7102,STELZER RD & JOHNSTOWN RD,,40.005842,-82.912296,,,0,,,0
PARSOUS,2793,PARSONS AVE & SOUTHWOOD AVE,,39.931704,-82.984011,,,0,,,0
2NDSAIE,5449,E 2ND AVE & SAINT CLAIR AVE,,39.981366,-82.98052,,,0,,,0
2NDHIGW,7348,E 2ND AVE & N HIGH ST,,39.982718,-83.004548,,,0,,,0
CAS10TS,1853,N CASSADY AVE & E 10TH AVE,,39.989626,-82.930662,,,0,,,0
GROBRINW,3254,GROVEPORT RD & BRIDLEWOOD BLVD,,39.875947,-82.946662,,,0,,,0
CHAFLEW,6957,CHATTERTON RD & FLEET RD,,39.914497,-82.85604,,,0,,,0
MAIDREW,2338,E MAIN ST & S DREXEL AVE,,39.957246,-82.937909,,,0,,,0
GEOPARS,6456,GEORGESVILLE RD & PARKWICK DR,,39.927144,-83.117009,,,0,,,0
POLMAEW2,6783,POLARIS PKWY & POLARIS MALL 2,,40.141848,-82.98566,,,0,,,0
HAMMOUS,3904,S HAMILTON RD & E MOUND ST,,39.951529,-82.877422,,,0,,,0
TREFARN,1553,TREMONT RD & FARLEIGH RD,,40.014584,-83.066663,,,0,,,0
LONJEFE,4162,E LONG ST & JEFFERSON AVE,,39.966783,-82.984528,,,0,,,0
CLEBLEN1,3072,CLEVELAND AVE & BLENDON WOODS BLVD,,40.093387,-82.950331,,,0,,,0
COLLEIW,2988,COLUMBUS ST & LEITHART DR,,39.881304,-83.072052,,,0,,,0
STEMONN,5670,STELZER RD & MONTCLAIR DR,,40.040487,-82.909405,,,0,,,0
NELOPPN1,4182,NELSON RD & MILLBROOK WAY,,39.974052,-82.947352,,,0,,,0
GRA152E,5311,152 GRACELAND BLVD EAST,,40.06591,-83.023431,,,0,,,0
LANHIGW,7536,W LANE AVE & N HIGH ST,W LANE AVE & ALY,40.006139,-83.010373,,,0,,,0
LONPARE,7231,E LONG ST & PARKWOOD AVE,,39.968671,-82.960041,,,0,,,0
SULBRIE,2722,SULLIVANT AVE & S BRINKER AVE,,39.94313,-83.083533,,,0,,,0
GRAMOUS,7540,S GRANT AVE & E MOUND ST,,39.956566,-82.989875,,,0,,,0
STEMONS,5684,STELZER RD & MONTCLAIR DR,,40.040505,-82.909683,,,0,,,0
TANSTEN,7024,TANGLEWOOD PARK BLVD & STEFFI DR,,39.990256,-83.155474,,,0,,,0
NATMCCBE,7083,NATIONWIDE BLVD & MCCONNELL BLVD,W NATIONWIDE BLVD & JOHN H MCCONNELL BLVD,39.968223,-83.007784,,,0,,,0
HILTINS,6565,HILLIARD ROME RD & TINAPPLE RD,,40.016932,-83.157119,,,0,,,0
MOUMONW,7339,MT VERNON AVE & N MONROE AVE,,39.971375,-82.97803,,,0,,,0
AVETAYS,5490,AVERY RD & TAYLOR LANE AVE,,40.044614,-83.157866,,,0,,,0
SUNBERN,2229,SUNBURY RD & BERRYFIELD DR,,40.064975,-82.913568,,,0,,,0
CHARENE,7319,CHATTERTON RD & RENFRO RD,,39.915202,-82.858884,,,0,,,0
ALUGLNAN,6911,ALUM CREEK DR & GLENLEA DR,,39.908928,-82.928445,,,0,,,0
WIL140E,6095,W WILSON BRIDGE RD & ST JULIEN DR,,40.107366,-83.020996,,,0,,,0
SUNBERS,4034,SUNBURY RD & BERRYFIELD DR,,40.06511,-82.913606,,,0,,,0
SHAFAIS,3049,SHARON WOODS BLVD & FAIRHAVEN RD,,40.093266,-82.969714,,,0,,,0
SULHELE,2737,SULLIVANT AVE & HELEN ST,,39.948981,-83.044132,,,0,,,0
MOR415S,6538,4155 MORSE CROSSING,4155 MORSE XING,40.05513,-82.918584,,,0,,,0
PARGROVN,2838,PARSONS AVE & GROVEPORT RD,PARSONS AVE & GROVEPORT PIKE LOOP,39.918561,-82.984792,,,0,,,0
LOCMARS2,7290,LOCKBOURNE RD & MARION RD,,39.92246,-82.965475,,,0,,,0
5THLEOE,4165,E 5TH AVE & LEONARD AVE,,39.986086,-82.953196,,,0,,,0
BROTAYE,5428,E BROAD ST & TAYLOR STATION RD,,39.979316,-82.843016,,,0,,,0
STEJOHTS,7101,STELZER RD & JOHNSTOWN RD,,40.005699,-82.912639,,,0,,,0
LIV18TE,1916,E LIVINGSTON AVE & S 18TH ST,,39.950876,-82.978123,,,0,,,0
NORGUINW,1343,NORTHWEST BLVD & GUILFORD RD,,40.001613,-83.055291,,,0,,,0
EASEASPW,6871,EASTON WAY & EASTON SQUARE PL,,40.048235,-82.915057,,,0,,,0
MOUWAYW,54,W MOUND ST & S WAYNE AVE,,39.938547,-83.062991,,,0,,,0
BROTAYW,4342,E BROAD ST & TAYLOR AVE,,39.966841,-82.961349,,,0,,,0
MAISEYE,2279,E MAIN ST & SEYMOUR AVE,,39.957468,-82.954631,,,0,,,0
SAN868S,7483,8685 SANCUS BLVD,,40.140737,-82.99147,,,0,,,0
SANLAZS,7487,SANCUS BLVD & LAZELLE RD,,40.135497,-82.991934,,,0,,,0
LONWASE,4161,E LONG ST & N WASHINGTON AVE,,39.966483,-82.987293,,,0,,,0
ALUWILS,7031,ALUM CREEK DR & WILLIAMS RD,,39.888392,-82.930373,,,0,,,0
CEMFRAW,7307,CEMETERY RD & FRANKLIN ST,,40.030176,-83.156978,,,0,,,0
MOUWAYE,2437,W MOUND ST & S WAYNE AVE,,39.938401,-83.062789,,,0,,,0
EASEASPE,6870,EASTON WAY & EASTON SQUARE PL,,40.048003,-82.915577,,,0,,,0
BROWOOE,2482,E BROAD ST & WOODLAND AVE,,39.967032,-82.957875,,,0,,,0
BRODAVW,2624,W BROAD ST & N DAVIS AVE,,39.959762,-83.021483,,,0,,,0
JOYBLAS,4856,JOYCE AVE & E BLAKE AVE,,40.010185,-82.962398,,,0,,,0
BROWOOW,2541,E BROAD ST & WOODLAND AVE,,39.967222,-82.957926,,,0,,,0
JOYBLAN,4074,JOYCE AVE & E BLAKE AVE,,40.010403,-82.962166,,,0,,,0
SINLINN,7559,SINCLAIR RD & LINCOLN AVE,SINCLAIR RD & E LINCOLN AVE,40.07511,-82.997811,,,0,,,0
TREONAS,1587,TREMONT RD & ONANDAGA DR,,40.00959,-83.069997,,,0,,,0
BRODAVE,2675,W BROAD ST & S DAVIS AVE,,39.959611,-83.021282,,,0,,,0
HIGHUBS,1306,N HIGH ST & W HUBBARD AVE,,39.978538,-83.003938,,,0,,,0
WHIWILE,2760,E WHITTIER ST & WILSON AVE,,39.943343,-82.967974,,,0,,,0
KINOLEE1,7859,KING AVE & OLENTANGY TRAIL,KING AVE & OLENTANGY RIVER RD,39.990711,-83.022901,,,0,,,0
SHASKYN,4439,SHARON WOODS BLVD & SKYWAE DR,,40.095503,-82.964824,,,0,,,0
SULWHEW1,7306,SULLIVANT AVE & S WHEATLAND AVE,,39.94588,-83.0612,,,0,,,0
NEINORS,6692,NEIL AVE & NORTHWOOD AVE,,40.008286,-83.014006,,,0,,,0
LIVBULE,1928,E LIVINGSTON AVE & BULEN AVE,,39.948717,-82.951593,,,0,,,0
NEINORN,6673,NEIL AVE & W NORWICH AVE,,40.007188,-83.014039,,,0,,,0
COMROHN,8022,COMMERCE CENTER DR & ROHR RD,,39.841306,-82.912736,,,0,,,0
BROEASW,7266,E BROAD ST & EASTPOINTE RIDGE DR,,39.982407,-82.818173,,,0,,,0
256FARN,3838,STATE ROUTE 256 & FARMSBURY DR,,39.941202,-82.792238,,,0,,,0
OAKHAME,3720,OAKLAND PARK AVE & HAMILTON AVE,,40.031912,-82.977745,,,0,,,0
COLMAIS,7769,COLLEGE ST & MAIN ST,,39.851987,-82.886517,,,0,,,0
WILTRAS,7388,N WILSON RD & TRABUE RD,,39.987022,-83.107274,,,0,,,0
AMBBOSN,3994,AMBLESIDE DR & BOSWORTH PL,,40.10119,-82.980518,,,0,,,0
MCK1600W,4124,MCKINLEY ADMIN OFFICE,1600 MCKINLEY ADMIN OFFICE,39.964561,-83.044936,,,0,,,0
BROALGE,2651,W BROAD ST & S ALGONQUIN AVE,,39.954304,-83.085414,,,0,,,0
178HILLS,7718,1785 HILLIARD ROME RD,,39.988276,-83.151478,,,0,,,0
LANBRAW,3780,W LANE AVE & BRANDON RD,,40.007416,-83.057299,,,0,,,0
GROBIXSE,1907,GROVEPORT RD & BIXBY RD,,39.865878,-82.924101,,,0,,,0
3RDPARE1,7337,W 3RD AVE & PARKWAY DR N,,39.984557,-83.033142,,,0,,,0
HIGSHES,1271,N HIGH ST & SHEFFIELD RD,,40.056126,-83.019942,,,0,,,0
TANSTES,7023,TANGLEWOOD PARK BLVD & STEFFI DR,,39.99056,-83.155509,,,0,,,0
GROGENW,3282,GROVEPORT RD & GENDER RD,,39.845808,-82.828674,,,0,,,0
STECOLN,5672,STELZER RD & COLLIERY AVE,385 STELZER RD & COLLIERY AVE,40.052184,-82.908782,,,0,,,0
1STASHE,2936,W 1ST AVE & ASHLAND AVE,,39.982018,-83.050588,,,0,,,0
GROLONW,7771,GROVEPORT RD & LONDON GROVEPORT RD,MAIN ST & MAIN ST,39.855161,-82.898052,,,0,,,0
CLE5THN1,7210,CLEVELAND AVE & E 5TH AVE,,39.986199,-82.989092,,,0,,,0
OLEBORS,6429,OLENTANGY RIVER RD & BORROR DR,,40.009046,-83.022875,,,0,,,0
MAIMONE,2288,E MAIN ST & MONTROSE AVE,,39.956922,-82.930727,,,0,,,0
MAICHAW,2350,E MAIN ST & S CHAMPION AVE,,39.957904,-82.969296,,,0,,,0
KARFERN1,7314,KARL RD & FERRIS RD,,40.0516,-82.976518,,,0,,,0
INDNORN,1446,INDIANOLA AVE & E N BROADWAY,INDIANOLA AVE & E NORTH BROADWAY,40.031582,-83.000921,,,0,,,0
DUBVILS,7185,DUBLIN CENTER DR & VILLAGE PKWY,,40.101401,-83.094153,,,0,,,0
BRY22NE,7408,BRYDEN RD & S 22ND ST,,39.960475,-82.971446,,,0,,,0
MORSTONE,6705,MORSE RD & STONERIDGE DR,,40.055342,-82.866635,,,0,,,0
LIVKENW,1986,E LIVINGSTON AVE & KENILWORTH PL,,39.947098,-82.918575,,,0,,,0
HIGCOON,1216,N HIGH ST & E COOKE RD,,40.050206,-83.020081,,,0,,,0
BROREYW,5622,E BROAD ST & REYNOLDSBURG NEW ALBANY,E BROAD ST & REYNOLDSBURG-NEW ALBANY RD,39.982754,-82.81513,,,0,,,0
HIGHALN,1240,N HIGH ST & HALLIGAN AVE,,40.103554,-83.017036,,,0,,,0
MAICHAE,2272,E MAIN ST & S CHAMPION AVE,,39.957753,-82.969033,,,0,,,0
4THJENS,2212,S 4TH ST & E JENKINS AVE,,39.933129,-82.992823,,,0,,,0
INDNORS,1489,INDIANOLA AVE & E NORTH BROADWAY,,40.03106,-83.001152,,,0,,,0
INDGLEN,1453,INDIANOLA AVE & GLENMONT AVE,,40.04407,-82.999992,,,0,,,0
GROLOCSE,3258,GROVEPORT RD & LOCKBOURNE RD,,39.904467,-82.966889,,,0,,,0
MOUGRANW,3450,MOUNT VERNON AVE & N GRANT AVE,,39.969376,-82.992375,,,0,,,0
NEI8THS,4227,NEIL AVE & W 8TH AVE,,39.99231,-83.014154,,,0,,,0
MOREASN1,6643,MORSE CROSSING & EASTON WAY,,40.049515,-82.919931,,,0,,,0
WHIPARW,2777,E WHITTIER ST & PARSONS AVE,,39.944274,-82.982852,,,0,,,0
NORMORS,6492,NORTHTOWNE BLVD & MORSE RD,,40.060936,-82.961869,,,0,,,0
HAMSIMN,2686,S HAMILTON RD & SIMPSON DR,,39.951418,-82.877238,,,0,,,0
LIVBERE,3866,E LIVINGSTON AVE & BERKLEY RD,E LIVINGSTON AVE & BERKELEY RD,39.948967,-82.956645,,,0,,,0
NEI8THN,1706,NEIL AVE & W 8TH AVE,,39.992315,-83.013973,,,0,,,0
MAIFAIW,2344,E MAIN ST & FAIRWOOD AVE,,39.957576,-82.952676,,,0,,,0
GREOPPNW,4975,GREENOCK RD & GREENOCK CT,,39.925347,-83.094138,,,0,,,0
LIVBAIE,3189,E LIVINGSTON AVE & BAIRSFORD DR,,39.943061,-82.844026,,,0,,,0
PKWCTRS,7042,PARKWAY CENTRE DR & STRINGTOWN RD,PARKWAY CENTER & STRINGTOWN RD,39.877681,-83.045615,,,0,,,0
LIVBURE,1952,E LIVINGSTON AVE & BURLINGTON AVE,,39.945022,-82.883296,,,0,,,0
BRYOHIW,2088,BRYDEN RD & S OHIO AVE,,39.960537,-82.970891,,,0,,,0
CHAOAKN,3558,S CHAMPION AVE & OAK ST,,39.962503,-82.969017,,,0,,,0
TRA510E,5859,5101 TRABUE RD,,39.982445,-83.134736,,,0,,,0
BLA505W1,6570,5050 BLAZER PKWY,,40.088318,-83.126155,,,0,,,0
GODCHEE,3455,GODOWN RD & CHEVIOT DR,,40.060213,-83.051327,,,0,,,0
STAPOLN,7895,N STATE ST & POLARIS PKWY,N STATE ST & POLARIS WOODS BLVD,40.147732,-82.923218,,,0,,,0
OLDCALW,4884,OLD LEONARD AVE & CALDWELL PL,,39.975301,-82.979128,,,0,,,0
LOCREFN,4661,LOCKBOURNE RD & REFUGEE RD,,39.919457,-82.965542,,,0,,,0
BREMYRS,1883,BRENTNELL AVE & MYRTLE AVE,,40.016027,-82.947893,,,0,,,0
BROBRUNW,5806,E BROAD ST & BRUNSON AVE,,39.967682,-82.953683,,,0,,,0
KIMCANW,7929,KIMBERLY PKWY N & CANAL BAY WAY,,39.923177,-82.893128,,,0,,,0
MARWOOEF,5440,MARYLAND AVE & WOODLAND AVE,,39.977703,-82.95536,,,0,,,0
SMI811E,7372,8111 SMITHS MILL RD,,40.083508,-82.765035,,,0,,,0
NEINATS,1411,NEIL AVE & NATIONWIDE BLVD,,39.967669,-83.009793,,,0,,,0
GODCHEW,4911,GODOWN RD & CHEVIOT DR,,40.060216,-83.050996,,,0,,,0
WALFITS,3062,WALFORD ST & FITZROY DR,,40.056919,-82.962509,,,0,,,0
CLEABES,1140,CLEVELAND AVE & ABERDEEN AVE,,40.02034,-82.965028,,,0,,,0
HILTINAN,6521,HILLIARD ROME RD & TINAPPLE RD,,40.017099,-83.156972,,,0,,,0
CLE13TS,4682,CLEVELAND AVE & E 13TH AVE,,39.996692,-82.978646,,,0,,,0
SANPARS,7470,SANCUS BLVD & PARK RD,SANCUS BLVD & CEDAR TRACE BLVD,40.126917,-82.994002,,,0,,,0
GRO470NW,3253,4700 GROVEPORT RD,,39.872907,-82.94308,,,0,,,0
HARGARS,2955,HARRISBURG PIKE & GARLING AVE,,39.939865,-83.040387,,,0,,,0
RIV5THS,1338,RIVERSIDE DR & W 5TH AVE,,39.989877,-83.064345,,,0,,,0
SMI900W1,7377,9000 SMITHS MILL RD,9000 SMITH'S MILL RD,40.085301,-82.747519,,,0,,,0
CLE17TN,1104,CLEVELAND AVE & E 17TH AVE,,40.000161,-82.975688,,,0,,,0
KARNORN,1771,KARL RD & NORTHLAND PARK AVE,,40.057752,-82.976375,,,0,,,0
SOUSULS,2371,S SOUDER AVE & SULLIVANT AVE,,39.952862,-83.021673,,,0,,,0
VILSAWW,7184,VILLAGE PKWY & SAWMILL RD,,40.102009,-83.092642,,,0,,,0
BROMAYE,2677,W BROAD ST & S MAY AVE,,39.960441,-83.0144,,,0,,,0
DEL236E,1854,2367 DELAVAN DR,,40.009437,-82.945377,,,0,,,0
MOCCENW,1681,MOCK RD & CENTURY DR,,40.011426,-82.946647,,,0,,,0
TUTBRAE,6202,TUTTLE CROSSING & BRADENTON AVE,TUTTLE CROSSING BLVD & BRADENTON AVE,40.076398,-83.129248,,,0,,,0
CLE17TS,1151,CLEVELAND AVE & E 17TH AVE,,39.99993,-82.976077,,,0,,,0
TAYWESS,4545,TAYLOR STATION RD & WESTBOURNE AVE,,39.984278,-82.84329,,,0,,,0
SANPARN,7469,SANCUS BLVD & PARK RD,,40.126998,-82.993777,,,0,,,0
HARGARN,3011,HARRISBURG PIKE & GARLING AVE,,39.939746,-83.040263,,,0,,,0
JAMBRON,4770,N JAMES RD & E BROAD ST,,39.97251,-82.913411,,,0,,,0
BROBRICE,6858,E BROAD ST & N BRICE RD,,39.981228,-82.826457,,,0,,,0
HAMJONS,7363,N HAMILTON RD & E JOHNSTOWN RD,,40.037304,-82.86518,,,0,,,0
RIDTREW,1558,RIDGECLIFF RD & TREMONT RD,,40.022538,-83.060265,,,0,,,0
HIGDERS,2221,S HIGH ST & DERING AVE,,39.913379,-82.995494,,,0,,,0
LANTOMS,5306,LANCASTER AVE & TOMAHAWK TRAIL,,39.976497,-82.811517,,,0,,,0
MAIFOUW,3709,E MAIN ST & FOUNTAIN LN,,39.955052,-82.860003,,,0,,,0
BROBRICW,6859,E BROAD ST & BRICE RD,,39.981377,-82.827293,,,0,,,0
INDGLES,1482,INDIANOLA AVE & GLENMONT AVE,,40.044376,-83.000121,,,0,,,0
OLE3420N,4417,3420 OLENTANGY RIVER RD,,40.029275,-83.029277,,,0,,,0
RIDTREE,7229,RIDGECLIFF RD & TREMONT RD,,40.02244,-83.060029,,,0,,,0
HIGFULN,6370,S HIGH ST & E FULTON ST,,39.954211,-82.998989,,,0,,,0
WEBMCGE,3684,E WEBER RD & MCGUFFEY RD,,40.023484,-82.981908,,,0,,,0
REFWINE,4506,REFUGEE RD & WINCHESTER PIKE,,39.917311,-82.914606,,,0,,,0
WILARIE,7112,WILLIAMS RD & ARIES BROOK DR,,39.888785,-82.92865,,,0,,,0
CLELEHS,1835,CLEVELAND AVE & LEHNER RD,,40.052279,-82.953688,,,0,,,0
HIGCHIN,1188,N HIGH ST & CHITTENDEN AVE,,39.99602,-83.007178,,,0,,,0
791SCIS,7645,791 SCIENCE BLVD,,39.996631,-82.843448,,,0,,,0
3RDSPRS,4173,N 3RD ST & E SPRING ST,,39.96602,-82.998744,,,0,,,0
4015TH,7981,4018 E FIFTH AVE,E 5TH AVE,39.986436,-82.89475,,,0,,,0
REFWINW,6956,REFUGEE RD & WINCHESTER PIKE,,39.91742,-82.913441,,,0,,,0
WEBMCGW,3694,E WEBER RD & MCGUFFEY RD,,40.023556,-82.982261,,,0,,,0
BROGEOE,4282,W BROAD ST & GEORGESVILLE RD,,39.953112,-83.109579,,,0,,,0
HIGCHIS,1297,N HIGH ST & CHITTENDEN AVE,,39.995901,-83.007325,,,0,,,0
CHATORS,7923,N CHAMPION & TORONTO ST,N CHAMPION AVE & TORONTO ST,39.976114,-82.968434,,,0,,,0
TAMMAPNW,3028,TAMARACK CIR N & MAPLE CANYON,,40.077578,-82.965691,,,0,,,0
OLEBURS,6779,OLENTANGY RIVER RD & BURNBRAE AVE,,40.014628,-83.022612,,,0,,,0
SULOGDE,2727,SULLIVANT AVE & S OGDEN AVE,,39.944118,-83.07001,,,0,,,0
AGLBRIWW,4737,AGLER RD & BRIDGEWALK ST,,40.026751,-82.944826,,,0,,,0
17THAME,4905,E 17TH AVE & HAMILTON AVE,,40.000452,-82.979485,,,0,,,0
DAVCRYSW,7075,DAVIDSON RD & CRYSTAL LAKE DR,,40.048284,-83.15339,,,0,,,0
CLEWELS,1136,CLEVELAND AVE & WELDON AVE,,40.027433,-82.964417,,,0,,,0
GRENHARW,7036,GREENLAWN AVE & HARMON AVE,,39.939765,-83.013937,,,0,,,0
MCCSTYE,4376,MCCUTCHEON RD & STYGLER RD N,,40.032534,-82.889657,,,0,,,0
HIGBEES,1270,N HIGH ST & W BEECHWOLD BLVD,,40.058736,-83.019785,,,0,,,0
OLEBURN,4350,OLENTANGY RIVER RD & BURNBRAE AVE,2620 OLENTANGY RIVER RD & BURNBRAE AVE,40.014478,-83.022271,,,0,,,0
1STWESE,2935,W 1ST AVE & WESTWOOD AVE,,39.982129,-83.053101,,,0,,,0
HIGALCS,2224,S HIGH ST & W ALCOTT RD,,39.905666,-82.995471,,,0,,,0
COUOAKS,4846,COURTRIGHT RD & OAKCREST RD,,39.924833,-82.898862,,,0,,,0
GEOSULS,5597,GEORGESVILLE RD & SULLIVANT AVE,,39.940407,-83.112254,,,0,,,0
HUDCLEW,7784,E HUDSON ST & CLEVELAND AVE,,40.013777,-82.967899,,,0,,,0
COMGRES,8021,GREEN POINTE DR S & COMMERCE CENTER DR,,39.84667,-82.911867,,,0,,,0
GEOSULN,4244,GEORGESVILLE RD & SULLIVANT AVE,,39.941719,-83.111901,,,0,,,0
COUOAKN,4730,COURTRIGHT RD & OAKCREST RD,,39.924797,-82.898696,,,0,,,0
HIGLARN,1238,N HIGH ST & LARRIMER AVE,,40.099024,-83.01732,,,0,,,0
HIGALCN,2240,S HIGH ST & E ALCOTT RD,S HIGH ST & W ALCOTT RD,39.905892,-82.995237,,,0,,,0
BETPORW,5751,BETHEL RD & PORTLAND ST,,40.064002,-83.062532,,,0,,,0
SNODONE,5248,SNOUFFER RD & DONAHUE CT,,40.103717,-83.061671,,,0,,,0
1STGLEW,2920,W 1ST AVE & GLENN AVE,,39.982288,-83.054016,,,0,,,0
NEI1STN,1692,NEIL AVE & W 1ST AVE,,39.980278,-83.011604,,,0,,,0
HIGFRANS,2203,S HIGH ST & W FRANKFORT ST,,39.947241,-82.997858,,,0,,,0
WILFISS,7589,N WILSON RD & FISHER RD,,39.966812,-83.095275,,,0,,,0
MOU22NW,1676,MOUNT VERNON AVE & N 22ND ST,,39.972568,-82.971234,,,0,,,0
SOUSCON,5416,N SOUDER AVE & SCOTT ST,,39.961191,-83.022694,,,0,,,0
WASCOLS,3266,WASHINGTON ST & W COLUMBUS ST,,39.841893,-82.808894,,,0,,,0
SOUSCOS,5417,N SOUDER AVE & SCOTT ST,,39.961058,-83.022784,,,0,,,0
ROCHAME,4861,ROCKY FORK BLVD & N HAMILTON RD,,40.013392,-82.866191,,,0,,,0
1STGLEE,2939,W 1ST AVE & GLENDALE AVE,,39.981731,-83.043596,,,0,,,0
BETPORE,5772,BETHEL RD & PORTLAND ST,,40.063794,-83.061802,,,0,,,0
WILFISN,7588,N WILSON RD & FISHER RD,,39.96659,-83.094896,,,0,,,0
BROPARSE,4142,E BROAD ST & PARSONS AVE,,39.964363,-82.981014,,,0,,,0
MOU22NE,1631,MOUNT VERNON AVE & N 22ND ST,,39.972486,-82.971179,,,0,,,0
ROH283E,7438,2830 ROHR RD,,39.843064,-82.930294,,,0,,,0
BROMAPW,2525,E BROAD ST & MAPLEWOOD AVE,,39.973218,-82.902787,,,0,,,0
CANJOHNS,6659,CANNON DR & JOHN H HERRICK DR,1849 CANNON DR & JOHN H HERRICK DR,39.999447,-83.022436,,,0,,,0
NAG6THE,2137,E NAGHTEN ST & N 6TH ST,289 E NAGHTEN ST & N 6TH ST,39.968627,-82.993035,,,0,,,0
SUMMAYS,1499,SUMMIT ST & E MAYNARD AVE,,40.010888,-83.000494,,,0,,,0
BLAPARS1,7162,BLAZER PKWY & PARKCENTER CIR,PAUL BLAZER PKWY & PARKCENTER AVE,40.078773,-83.131277,,,0,,,0
NORTAYN,3022,NORTHTOWNE BLVD & TAYMOUTH RD,,40.066202,-82.958295,,,0,,,0
PROPITN,5021,PROPRIETORS RD & PITTSFIELD DR,,40.094846,-83.003683,,,0,,,0
PROPITS,5044,PROPRIETORS RD & PITTSFIELD DR,,40.09519,-83.003765,,,0,,,0
DEMSHON,7792,DEMOREST RD SHOPPING CENTER,DEMOREST RD & FARMHURST LN,39.929703,-83.090196,,,0,,,0
DEM851S,2555,851 DEMOREST RD,,39.936487,-83.089946,,,0,,,0
CLATAYE,7641,CLAYCRAFT RD & TAYLOR STATION RD,,39.9924,-82.840176,,,0,,,0
FROTOWN,6398,S FRONT ST & W TOWN ST,,39.958888,-83.001709,,,0,,,0
HAMSAIS,2558,S HAMILTON RD & SAINT ANN LN,,39.969562,-82.875663,,,0,,,0
MAIMORS,1767,MAIZE RD & MORSE RD,,40.059919,-82.987459,,,0,,,0
LOC234S,2123,2341 LOCKBOURNE RD,,39.916746,-82.965949,,,0,,,0
MAI5THE,1347,E MAIN ST & S 5TH ST,,39.956876,-82.992364,,,0,,,0
NOROWEN,7853,NORTON RD & OWEN ST,NORTON RD & OWENS ST,39.946174,-83.141082,,,0,,,0
CLELAUS,3079,CLEVELAND AVE & LAURELWOOD DR,,40.093165,-82.950543,,,0,,,0
HAMSPRN,3107,HAMILTON AVE & E SPRING ST,,39.968942,-82.981928,,,0,,,0
3RDPERW,1325,W 3RD AVE & PERRY ST,,39.984044,-83.019399,,,0,,,0
LOCBUCS,4644,LOCKBOURNE RD & BUCKEYE PARK RD,,39.918919,-82.965769,,,0,,,0
MCKMCKW,7510,MCKINLEY AVE & MCKINLEY TRANSPORTATION,MCKINLEY AVE & MCKINLEY GARAGE PATH,39.963875,-83.041242,,,0,,,0
LINGEOE,7186,LINCOLN PARK CT & GEORGESVILLE RD,,39.946679,-83.112436,,,0,,,0
CAN10TN,1700,CANNON DR & W 10TH AVE,,39.99387,-83.021035,,,0,,,0
2NDCLEW,5443,E 2ND AVE & CLEVELAND AVE,,39.981814,-82.988842,,,0,,,0
MAINORN,1759,MAIZE RD & NORRIS DR,,40.044445,-82.988551,,,0,,,0
BROWINW,2544,E BROAD ST & WINNER AVE,,39.966352,-82.96567,,,0,,,0
TOYGATW,7885,TOY RD & WESTPOINT PKWY,TOY RD & AMAZON DR,39.85222,-82.931128,,,0,,,0
FAISOUN,7570,FAIRWOOD AVE & SOUTHFIELD DR S,,39.90127,-82.957597,,,0,,,0
BROGOVW,2545,E BROAD ST & GOVERNOR PL,,39.965974,-82.969109,,,0,,,0
LINSEDS,5709,LINWORTH RD & SEDGWICK RD,,40.083259,-83.049785,,,0,,,0
TOWDAKW,4554,W TOWN ST & DAKOTA AVE,,39.955452,-83.027833,,,0,,,0
LINSEDN,3500,LINWORTH RD & SEDGWICK RD,,40.083407,-83.049705,,,0,,,0
SANLAZN,7486,SANCUS BLVD & LAZELLE RD,,40.136042,-82.991687,,,0,,,0
CLE340N,3077,340 S CLEVELAND AVE,,40.116149,-82.948663,,,0,,,0
GROSALNW,3293,GROVEPORT RD & SALTZGABER RD,,39.858526,-82.908157,,,0,,,0
161CLEW,7872,STATE RTE 161 AND CLEVELAND AVE,E DUBLIN-GRANVILLE RD & CLEVELAND AVE,40.085255,-82.951453,,,0,,,0
HUDAZEW,3644,E HUDSON ST & AZELDA AVE,,40.014602,-82.987502,,,0,,,0
CHANOEE,3245,CHATTERTON RD & NOE BIXBY RD,,39.915489,-82.862542,,,0,,,0
RIEWHIN,5267,RIEBER ST & WHITNEY AVE,,40.103438,-83.028169,,,0,,,0
SNOHICE,5250,SNOUFFER RD & HICKORY GROVE CT,,40.103383,-83.048988,,,0,,,0
5THHESW,1527,W 5TH AVE & HESS ST,,39.988226,-83.032033,,,0,,,0
RENRTAW,7025,RENNER RD & RENTRA DR,,39.981815,-83.146575,,,0,,,0
BRIPKYN,7658,5780 BRITTON PKWY,5780 BRITTON PKWY & TUTTLE CROSSING EXIT,40.070438,-83.137153,,,0,,,0
EAKMAUW,2405,EAKIN RD & MAURINE DR,,39.939408,-83.100338,,,0,,,0
JAMBROS1,4833,S JAMES RD & BROWNLEE AVE,,39.94844,-82.915648,,,0,,,0
BRIOPPS,5180,BRICE RD & PORTSMOUTH DR,,39.957625,-82.82797,,,0,,,0
SPRHIGW,7515,E SPRING ST & N HIGH ST,,39.966398,-83.00122,,,0,,,0
4THREES,2215,S 4TH ST & REEB AVE,,39.924943,-82.993457,,,0,,,0
RENRTAE,7026,RENNER RD & RENTRA DR,,39.981711,-83.146504,,,0,,,0
BRODOUE,1167,E BROAD ST & S DOUGLAS ST,,39.964733,-82.977962,,,0,,,0
OAKMILW,2046,OAK ST & MILLER AVE,,39.962448,-82.960713,,,0,,,0
HOMO4615,6938,4615 HOMER OHIO LN,4615 HOMER OHIO LN & HAMILTON RD,39.874396,-82.881694,,,0,,,0
MCCLANE,4375,MCCUTCHEON RD & LANCEWOOD DR,,40.032687,-82.893459,,,0,,,0
LONLUDE2,4156,W LONG ST & LUDLOW ST,W LONG ST & N LUDLOW ST,39.964548,-83.003909,,,0,,,0
FAIDESN,7584,FAIRWOOD AVE & DESHLER AVE,FAIRWOOD AVE & E DESHLER AVE,39.939256,-82.954412,,,0,,,0
LIVMONW,1991,E LIVINGSTON AVE & MONTROSE AVE,,39.947838,-82.932096,,,0,,,0
BRIDAVS,7697,BRITTON PKWY & DAVIDSON RD,BRITTON PKWY & BRITTON FARMS DR,40.050309,-83.134191,,,0,,,0
BROWASAE,4140,E BROAD ST & S WASHINGTON AVE,,39.963682,-82.987431,,,0,,,0
NEICOLS,1408,NEIL AVE & COLLINS AVE,,39.976044,-83.010961,,,0,,,0
PARGROS,2798,PARSONS AVE & GROVEPORT RD,,39.919524,-82.984892,,,0,,,0
KARCARS,1804,KARL RD & CAROLYN AVE,,40.037045,-82.977859,,,0,,,0
380VETS,7311,3800 VETERANS MEMORIAL DR,,40.029763,-83.168345,,,0,,,0
THIBMILW,6923,THIMBLEBERRY RD & MILLSTONE RD,,39.885822,-82.928022,,,0,,,0
NOEHATN,7010,NOE BIXBY RD & HATFIELD DR,,39.913042,-82.863166,,,0,,,0
FISMILN,5629,FISHINGER BLVD & MILL RUN DR,,40.026482,-83.114106,,,0,,,0
NEICOLN,1318,NEIL AVE & COLLINS AVE,,39.976196,-83.010772,,,0,,,0
FIS124E,3402,1247 FISHINGER RD,,40.023488,-83.045892,,,0,,,0
BROWASAW,6385,E BROAD ST & N WASHINGTON AVE,,39.963836,-82.987493,,,0,,,0
BROCARE,1171,E BROAD ST & CARDINAL PARK DR,,39.977563,-82.860342,,,0,,,0
FAIDESS,7585,FAIRWOOD AVE & DESHLER AVE,FAIRWOOD AVE & E DESHLER AVE,39.938935,-82.954648,,,0,,,0
NORWESN,7845,NORTON RD & WESTBURY DR,,39.933734,-83.144777,,,0,,,0
CASHUDS,5678,N CASSADY AVE & E HUDSON ST,,40.011981,-82.929327,,,0,,,0
PARANDW,4033,PARK BLVD & ANDOVER ST,,40.080315,-83.006901,,,0,,,0
RIEWHIS,1245,RIEBER ST & WHITNEY AVE,,40.103409,-83.028283,,,0,,,0
POLLYRW,6781,POLARIS PKWY & LYRA DR,,40.141672,-82.97751,,,0,,,0
12THIGW,3812,W 12TH AVE & N HIGH ST,,39.996922,-83.008195,,,0,,,0
HIGCAPS,7341,S HIGH ST & CAPITOL SQUARE,,39.961731,-83.00062,,,0,,,0
OHISYCS,3574,S OHIO AVE & E SYCAMORE ST,,39.948517,-82.97164,,,0,,,0
KARREDN,3964,KARL RD & RED ROBIN RD,,40.064991,-82.976928,,,0,,,0
GROFRUSE,3261,GROVEPORT RD & FRUSTA DR,,39.869524,-82.939002,,,0,,,0
NORFLES,3057,NORTHTOWNE BLVD & FLEETWOOD DR,,40.074223,-82.963532,,,0,,,0
LIV18TW,4929,E LIVINGSTON AVE & S 18TH ST,,39.950827,-82.977497,,,0,,,0
ZOLMOUE1,2889,ZOLLINGER RD & MOUNT HOLYOKE RD,,40.019152,-83.05304,,,0,,,0
3RDNEIW,3592,W 3RD AVE & NEIL AVE,,39.983779,-83.012924,,,0,,,0
NORKINN,2880,NORTHWEST BLVD & KING AVE,,39.991299,-83.040489,,,0,,,0
BROMIDCW,2515,E BROAD ST & MIDCLIFF DR,,39.976363,-82.872891,,,0,,,0
5THARLE,1756,W 5TH AVE & ARLINGTON AVE,,39.989416,-83.060659,,,0,,,0
SMOSUTS,5243,SMOKY ROW RD & SUTTER PKWY,,40.119724,-83.067871,,,0,,,0
SMOSUTN,4401,SMOKY ROW RD & SUTTER PKWY,,40.120295,-83.06786,,,0,,,0
5THARLW,2926,W 5TH AVE & ARLINGTON AVE,,39.989567,-83.06112,,,0,,,0
HIGAMAS,1278,N HIGH ST & AMAZON PL,,40.0403,-83.018287,,,0,,,0
RICGREE,2459,W RICH ST & S GREEN ST,,39.955138,-83.019531,,,0,,,0
BLARINN1,7955,BLAZER PKWY & RINGS RD,PAUL G. BLAZER MEMORIAL PKWY & PAUL BLAZER PKWY,40.084465,-83.130428,,,0,,,0
FISSTAE,7948,FISHINGER RD & N STAR RD,FISHINGER RD & NORTH STAR RD,40.023745,-83.047148,,,0,,,0
FAISOUS,7571,FAIRWOOD AVE & SOUTHFIELD DR S,,39.90144,-82.957798,,,0,,,0
LIV6THE,1911,E LIVINGSTON AVE & S 6TH ST,,39.952464,-82.990578,,,0,,,0
ZOLMOUE,1370,ZOLLINGER RD & MOUNTVIEW RD,,40.019341,-83.072431,,,0,,,0
SUMROSE,7226,SUMMIT VIEW RD & ROSCOE PL,,40.13268,-83.080143,,,0,,,0
CEN536S,7445,5360 CENTERPOINT DR,TOY RD,39.853868,-82.925428,,,0,,,0
5THSUMW,3738,E 5TH AVE & SUMMIT ST,,39.987054,-83.002427,,,0,,,0
LINGEOW,2144,LINCOLN PARK CT & GEORGESVILLE RD,,39.946752,-83.112011,,,0,,,0
SULMARTW,2687,SULLIVANT AVE & MARTIN AVE,,39.953029,-83.022953,,,0,,,0
BROSKIE,2676,W BROAD ST & S SKIDMORE ST,,39.960142,-83.016846,,,0,,,0
5THSAIE,4065,E 5TH AVE & SAINT CLAIR AVE,,39.985953,-82.978946,,,0,,,0
WOOBOYE,7161,W WOODRUFF AVE & BOYD LABORATORY,,40.003876,-83.012854,,,0,,,0
4TH9THN,1423,N 4TH ST & E 9TH AVE,,39.993087,-82.999114,,,0,,,0
MAIWILW,2349,E MAIN ST & WILSON AVE,,39.957856,-82.966461,,,0,,,0
INDWALS,1490,INDIANOLA AVE & WALHALLA RD,,40.028941,-83.001328,,,0,,,0
HAM24TS,7278,HAMILTON AVE & E 24TH AVE,,40.00637,-82.979556,,,0,,,0
HAM24TN,7277,HAMILTON AVE & E 24TH AVE,,40.006579,-82.979381,,,0,,,0
BROSKIW,4154,W BROAD ST & N SKIDMORE ST,,39.96035,-83.016586,,,0,,,0
ALUFRES,3590,ALUM CREEK DR & FREBIS AVE,,39.933184,-82.942166,,,0,,,0
OHISTES,3578,S OHIO AVE & STEWART AVE,,39.94111,-82.972184,,,0,,,0
MAIWILE,5768,E MAIN ST & WILSON AVE,,39.95772,-82.967026,,,0,,,0
5THSAIW,3307,E 5TH AVE & SAINT CLAIR AVE,,39.986147,-82.979985,,,0,,,0
INDFALN,1450,INDIANOLA AVE & FALLIS RD,,40.038868,-83.000428,,,0,,,0
BROHIGE,2662,W BROAD ST & S HIGHLAND AVE,,39.955496,-83.060658,,,0,,,0
LAN135S,6527,LANCASTER AVE & ALEXANDER CT,LANCASTER AVE & BLACKLICK XING,39.978877,-82.812502,,,0,,,0
LON4THE,4158,E LONG ST & N 4TH ST,,39.965307,-82.996985,,,0,,,0
HIGBOBN,7312,S HIGH ST & BOB EVANS,,39.883171,-83.000207,,,0,,,0
BOASHAS,7512,BOARDWALK ST & SHAPTER AVE,,40.088254,-82.992038,,,0,,,0
3RDGAYS,4113,N 3RD ST & E GAY ST,,39.964722,-82.998503,,,0,,,0
HIGSTEN,1385,S HIGH ST & STEWART AVE,,39.941826,-82.99657,,,0,,,0
BROLOWW,7535,E BROAD ST & LOWELL RD,,39.971845,-82.915639,,,0,,,0
KIN1218W,8024,1218 KINNEAR RD,KINNEAR RD & DRIVEWAY,39.998261,-83.042533,,,0,,,0
NEL520N,4574,520 N NELSON RD,,39.97924,-82.944547,,,0,,,0
STE750N,5702,750 STELZER RD,,39.987091,-82.913915,,,0,,,0
MCNOLDN,7627,MCNAUGHTEN RD & OLDE ORCHARD DR,MCNAUGHTEN RD & CHERRY HILL DR,39.963456,-82.837587,,,0,,,0
HIGSWANS,4096,N HIGH ST & SWAN ST,N HIGH ST & W SWAN ST,39.973099,-83.00285,,,0,,,0
BETCOAW,5224,BETHEL RD & COACHMAN RD,,40.064626,-83.0817,,,0,,,0
WILLINN,7394,N WILSON RD & LINDENDALE DR,,39.970682,-83.097378,,,0,,,0
BROMCNE,6383,E BROAD ST & MCNAUGHTEN RD,,39.98035,-82.834628,,,0,,,0
BOASHAN,6839,BOARDWALK ST & SHAPTER AVE,,40.089647,-82.991733,,,0,,,0
HIGSTES,2206,S HIGH ST & STEWART AVE,,39.942096,-82.996857,,,0,,,0
TAMNORE,3056,TAMARACK CIR S & NORTHTOWNE BLVD,,40.075564,-82.965479,,,0,,,0
BROBLAE,6528,E BROAD ST & BLACKLICK XING,,39.982279,-82.817147,,,0,,,0
LIVANNE,1915,E LIVINGSTON AVE & ANN ST,,39.951533,-82.980465,,,0,,,0
POL131E,6278,1319 POLARIS PKWY,,40.141234,-82.984434,,,0,,,0
5THSUME,4895,E 5TH AVE & SUMMIT ST,,39.98688,-83.001732,,,0,,,0
MORCHEE,5954,MORSE RD & CHESFORD RD,,40.059045,-82.944845,,,0,,,0
ROCROCE,4862,ROCKY FORK BLVD & ROCKY FORK CT,,40.013076,-82.86236,,,0,,,0
HAMELMN,7629,S HAMILTON & ELMONT PL,HAMILTON RD & ELMONT PL,39.865785,-82.885094,,,0,,,0
MAISHAS1,7276,MAIZE RD & SHANLEY DR,,40.056689,-82.987743,,,0,,,0
MORCHEW,6710,MORSE RD & CHERRY BOTTOM RD,,40.056455,-82.886456,,,0,,,0
MAIBLES,6609,MAIZE RD & BLENHEIM RD,,40.042095,-82.988884,,,0,,,0
298HAMN,7979,298 HAMILTON RD,S HAMILTON RD,40.01134,-82.867034,,,0,,,0
LARHIGW,4344,LARRIMER AVE & N HIGH ST,,40.099232,-83.017858,,,0,,,0
INDBEAN,1458,INDIANOLA AVE & E BEAUMONT RD,,40.05721,-83.000502,,,0,,,0
SKYSHAE,4910,SKYWAE DR & SHARON WOODS BLVD,,40.095466,-82.965257,,,0,,,0
LINMCCN,4373,LINCOLNSHIRE RD & MCCUTCHEON RD,,40.032603,-82.898985,,,0,,,0
FAIWEIN,7572,SOUTHFIELD DR & WEIRTON DR,SOUTHFIELD DR E & WEIRTON DR,39.90014,-82.95271,,,0,,,0
NORGUISE,2858,NORTHWEST BLVD & GUILFORD RD,,40.001897,-83.055686,,,0,,,0
TRELANS1,7877,TREMONT RD & LANGHAM RD,,40.02059,-83.06162,,,0,,,0
LIVBROE1,1940,E LIVINGSTON AVE & BROWNING AVE,,39.947193,-82.922477,,,0,,,0
HOMOHHE,6936,HOMER OHIO LN & HAMILTON RD,,39.875184,-82.883549,,,0,,,0
FAIGATS,7583,FAIRWOOD AVE & GATES ST,FAIRWOOD AVE & E GATES ST,39.936159,-82.954916,,,0,,,0
HAGLAVS,5361,N HAGUE AVE & LA VISTA DR,,39.979708,-83.085398,,,0,,,0
400CREEK,8039,400 CREEKSIDE PKWY,DILL DR & BIXBY RD,39.855058,-82.94592,,,0,,,0
BARBRUW,3870,E BARTHMAN AVE & BRUCK ST,,39.924069,-82.99004,,,0,,,0
HARGRES,7035,HARMON AVE & GREENLAWN AVE,,39.940725,-83.015124,,,0,,,0
HAMETNS,2560,S HAMILTON RD & ETNA RD,,39.964839,-82.876109,,,0,,,0
STEMORS1,7904,STELZER RD & MORSE RD,,40.057001,-82.910712,,,0,,,0
SCA577E,5060,5777 SCARBOROUGH BLVD,,39.932542,-82.838304,,,0,,,0
LANANNN,5308,LANCASTER AVE & ANNE CT,,39.974362,-82.810478,,,0,,,0
HIGJEFS,1268,N HIGH ST & E JEFFREY PL,,40.061622,-83.019633,,,0,,,0
ARLCHEN,1540,ARLINGTON AVE & W CHELSEA RD,,39.991213,-83.060182,,,0,,,0
KINDELE,3803,KING AVE & DELASHMUT AVE,,39.991003,-83.030254,,,0,,,0
SULLARW,2698,SULLIVANT AVE & LARCOMB AVE,,39.948585,-83.046775,,,0,,,0
HIGOAKS,1291,N HIGH ST & W OAKLAND AVE,,40.009249,-83.010043,,,0,,,0
HAMETNN,1174,S HAMILTON RD & ETNA RD,,39.964279,-82.875928,,,0,,,0
BROFAIE,2508,E BROAD ST & FAIRWAY BLVD,,39.975709,-82.877493,,,0,,,0
STYFORN,7669,STYGLER RD & FORESTWOOD DR,STYGLER RD N & FORESTWOOD DR,40.040728,-82.888591,,,0,,,0
SAWSNON,7682,SAWMILL RD & SNOUFFER RD,,40.104286,-83.090976,,,0,,,0
HIGWEBN,1202,N HIGH ST & E WEBER RD,,40.024318,-83.013843,,,0,,,0
ROSROSS,4213,ROSEHILL RD & ROSEBROOK LN,,39.979943,-82.82302,,,0,,,0
AMBROTW,6608,AMBLESIDE DR & ROTHINGHAM LN,,40.093248,-82.98077,,,0,,,0
JOY17TN,4070,JOYCE AVE & E 17TH AVE,,40.000223,-82.965291,,,0,,,0
MAIALLE,2268,E MAIN ST & ALLEN AVE,,39.957971,-82.979578,,,0,,,0
CLECTLRS,6931,CLEVELAND AVE & COUNTY LINE RD,N CLEVELAND AVE & COUNTY LINE RD W,40.137446,-82.947398,,,0,,,0
HAMPROS,5356,S HAMILTON RD & PROFESSIONAL PKWY,,39.89318,-82.882815,,,0,,,0
SANBROS,7489,SANCUS BLVD & BROCKWELL DR,,40.131589,-82.990933,,,0,,,0
HAMPRON,5351,S HAMILTON RD & PROFESSIONAL PKWY,,39.893573,-82.882531,,,0,,,0
BROBURE,2658,W BROAD ST & S BURGESS AVE,,39.955109,-83.068788,,,0,,,0
SANBRON,7488,SANCUS BLVD & BROCKWELL DR,,40.131821,-82.990673,,,0,,,0
BETPICW,7546,BETHEL RD & PICKFORDE DR,,40.064843,-83.087054,,,0,,,0
TAM463N,4624,4630 TAMARACK BLVD,,40.062269,-82.97084,,,0,,,0
HARBUTN,1320,HARRISON AVE & BUTTLES AVE,,39.977915,-83.014398,,,0,,,0
JOY17TS,4901,JOYCE AVE & E 17TH AVE,,40.000188,-82.965468,,,0,,,0
MCNWHIS,7634,MCNAUGHTEN RD & WHITNEY WOODS CT,,39.969266,-82.83723,,,0,,,0
MAILAMW,3850,E MAIN ST & LAMBY LN,,39.956,-82.892226,,,0,,,0
HIGWEBS,1284,N HIGH ST & W WEBER RD,,40.024689,-83.014164,,,0,,,0
DREFENN,5117,DRESDEN ST & FENTON ST,,40.054298,-82.968619,,,0,,,0
NEI7THS,1707,NEIL AVE & W 7TH AVE,,39.989553,-83.013617,,,0,,,0
FREOHIE1,7287,FREBIS AVE & S OHIO AVE,,39.934931,-82.972671,,,0,,,0
5THRARW,1659,E 5TH AVE & RARIG AVE,,39.984872,-82.92345,,,0,,,0
OAKKARW,1750,OAKLAND PARK AVE & KARL RD,,40.032031,-82.977934,,,0,,,0
ROSCOBW,4733,ROSWELL DR & COBURG RD,,39.939299,-82.903942,,,0,,,0
1STWILW,2914,W 1ST AVE & WILLARD AVE,,39.981563,-83.038645,,,0,,,0
HIGKELN,1201,N HIGH ST & E KELSO RD,,40.021572,-83.0131,,,0,,,0
SAWWESN,7176,SAWMILL RD & WEST CASE RD,,40.073191,-83.092587,,,0,,,0
GREGREW,2185,GREENWAY AVE & GREENWAY AVE S,,39.973629,-82.952466,,,0,,,0
SAWWESS,7177,SAWMILL RD & WEST CASE RD,,40.073956,-83.092811,,,0,,,0
CLE18TS,1150,CLEVELAND AVE & E 18TH AVE,,40.001395,-82.975098,,,0,,,0
5THRARE,1649,E 5TH AVE & RARIG AVE,,39.984808,-82.92403,,,0,,,0
CLE161SF,3125,CLEVELAND AVE & STATE ROUTE 161,,40.084198,-82.951251,,,0,,,0
MCKMONN,6195,MCKINLEY MONUMENT,S HIGH ST & E STATE ST,39.961223,-83.000324,,,0,,,0
MORAPPE1,6702,MORSE RD & APPIAN WAY,,40.056872,-82.897223,,,0,,,0
ROSCOBE,4843,ROSWELL DR & COBURG RD,,39.939181,-82.903368,,,0,,,0
SULEURE,2729,SULLIVANT AVE & S EUREKA AVE,,39.945166,-83.064436,,,0,,,0
HUDHIAE,3602,E HUDSON ST & HIAWATHA PARK DR,,40.014491,-82.987129,,,0,,,0
SHA170E,5116,1707 SHANLEY DR,,40.054374,-82.971202,,,0,,,0
HIGEUCN,1186,N HIGH ST & EUCLID AVE,,39.991224,-83.006225,,,0,,,0
SHADREW,3924,SHANLEY DR & DRESDEN ST,,40.054134,-82.969315,,,0,,,0
3RDCAME,2932,W 3RD AVE & CAMBRIDGE BLVD,,39.985638,-83.058262,,,0,,,0
CHAINDE,4041,CHASE RD & INDIANOLA AVE,,40.075722,-83.001433,,,0,,,0
DODENTE,3742,W DODRIDGE ST & CHEMICAL ABSTRACTS,,40.016153,-83.020927,,,0,,,0
LIVZETE,1945,E LIVINGSTON AVE & ZETTLER RD,,39.946517,-82.910144,,,0,,,0
TRAARLE,5281,TRABUE RD & ARLINGATE LN,,39.985887,-83.11316,,,0,,,0
ARLTEWN,1545,ARLINGTON AVE & TEWKSBURY RD,,40.001204,-83.063641,,,0,,,0
HIGBROS,2900,N HIGH ST & W BROAD ST,,39.962805,-83.000871,,,0,,,0
DUBDALW,7701,W DUBLIN GRANDVILLE RD & DALE DR,W DUBLIN-GRANVILLE RD & DALE DR,40.099669,-83.106877,,,0,,,0
ARLTEWS,1592,ARLINGTON AVE & TEWKSBURY RD,,40.001287,-83.063842,,,0,,,0
NEIMAYN,6675,NEIL AVE & MAYNARD AVE,NEIL AVE & W MAYNARD AVE,40.011214,-83.013232,,,0,,,0
3RDCAMW,2924,W 3RD AVE & CAMBRIDGE BLVD,,39.985756,-83.058266,,,0,,,0
LIVHAMW1,1984,E LIVINGSTON AVE & S HAMPTON RD,,39.946755,-82.911858,,,0,,,0
MAIESTW,4327,E MAIN ST & ESTATES LN,,39.955591,-82.791025,,,0,,,0
SPIALU1E,6884,SPIEGEL DR & ALUM CREEK DR,,39.837254,-82.932199,,,0,,,0
LOCREES,2120,LOCKBOURNE RD & REEB AVE,,39.924354,-82.965354,,,0,,,0
COLDULE,6971,COLUMBUS ST & DUDLEY AVE,,39.881886,-83.089608,,,0,,,0
HAMHOMN,7692,S HAMILTON RD & HOMER OHIO LN,,39.875405,-82.884012,,,0,,,0
HOMO4600,6939,4600 HOMER OHIO LN,4600 HOMER OHIO LN & HAMILTON RD,39.874489,-82.881659,,,0,,,0
DREREEW,5769,DREW AVE & REED RD,,40.066842,-83.066896,,,0,,,0
MOC2501W,6093,2501 MOCK RD,,40.011272,-82.943124,,,0,,,0
SUNCASN,7815,SUNBURY RD & N CASSADY,,40.027011,-82.933353,,,0,,,0
WESPARS,3121,WESTERVILLE RD & PARIS CT,,40.092373,-82.925607,,,0,,,0
LIVBARE,1946,E LIVINGSTON AVE & BARNETT RD,,39.946312,-82.906059,,,0,,,0
NELMARN,5071,N NELSON RD & MARYLAND AVE,,39.9768,-82.946131,,,0,,,0
HIGACTN,1211,N HIGH ST & ACTON RD,,40.041043,-83.018284,,,0,,,0
CHAMAIN,3556,S CHAMPION AVE & E MAIN ST,,39.95763,-82.969422,,,0,,,0
HAY316W,5815,3166 HAYDEN RD,,40.068191,-83.102219,,,0,,,0
GROCLANW,3255,GROVEPORT RD & CLARFIELD AVE,,39.899663,-82.963047,,,0,,,0
MORTAYNW,6485,MORRISON RD & TAYLOR RD,MORRISON ROAD & TAYLOR ROAD,40.003532,-82.861858,,,0,,,0
5THRUN1E,5992,W 5TH AVE & SEAPORT DR,,39.985588,-83.073518,,,0,,,0
LIVBARW,1983,E LIVINGSTON AVE & BARNETT RD,,39.946455,-82.906055,,,0,,,0
MCNWHI1,7636,MCNAUGHTEN RD & WHITMAN RD,,39.972898,-82.83691,,,0,,,0
WEBPONW,3696,E WEBER RD & PONTIAC ST,,40.023849,-82.988235,,,0,,,0
SHADURS,3050,SHARON WOODS BLVD & DURBRIDGE RD,,40.089849,-82.970197,,,0,,,0
CLECOPN,3076,S CLEVELAND AVE & COPELAND MILL RD,,40.112709,-82.948918,,,0,,,0
WORSNOS,6632,WORTHINGTON GALENA & SNOHOMISH AVE,WORTHINGTON GALENA RD & SNOHOMISH AVE,40.122962,-82.983167,,,0,,,0
NORTER5,568,SPRING ST TERMINAL BAY 5,COTA NORTH TERMINAL ENTRANCE SVC & W SPRING ST,39.965638,-83.002376,,,0,,,0
HUDJOYW,7781,E HUDSON ST & JOYCE AVE,,40.013524,-82.961906,,,0,,,0
FIECOTS,4550,1333 FIELDS AVE,,39.990472,-82.992125,,,0,,,0
INNCLEW,1128,INNIS RD & CLEVELAND AVE,,40.037463,-82.96211,,,0,,,0
SULCOUW1,7194,SULLIVANT AVE & COUNTRYBROOK E DR,,39.939085,-83.116183,,,0,,,0
MARLONS,7534,MARCONI BLVD & LONG ST,MARCONI BLVD & W LONG ST,39.964627,-83.004795,,,0,,,0
HANMAIN,36,HANSON ST & E MAIN ST,,39.956666,-82.77903,,,0,,,0
HUDDAYE,7937,E HUDSON ST & DAYTON AVE,,40.015348,-83.004541,,,0,,,0
5THNORE,5283,E 5TH AVE & NORTHVIEW AVE,,39.98517,-82.933824,,,0,,,0
LEOTAYE1,6851,LEONARD AVE & TAYLOR AVE,VETERANS ADMIN LOOP,39.979393,-82.963265,,,0,,,0
HAGELPN,4468,N HAGUE AVE & EL PASO DR,,39.97761,-83.084056,,,0,,,0
GODBRAS,4784,GODOWN RD & BRACKEN HOUSE CT,,40.064595,-83.056975,,,0,,,0
SAWSNOS,7681,SAWMILL RD & SNOUFFER RD,,40.105366,-83.091335,,,0,,,0
HUDDAYW,3650,E HUDSON ST & DAYTON AVE,,40.015428,-83.004343,,,0,,,0
SINSTRN,7557,SINCLAIR RD & STRIMPLE AVE,,40.072459,-82.99796,,,0,,,0
5THNORW,3653,E 5TH AVE & NORTHVIEW AVE,,39.98529,-82.933844,,,0,,,0
ZOLGLEE,3626,ZOLLINGER RD & GLENRICH PKWY,,40.01986,-83.083233,,,0,,,0
WAL779W,7370,7795 WALTON PKWY,,40.093649,-82.814469,,,0,,,0
LONPORW,7780,LONDON GROVEPORT RD & PORT RD,,39.829787,-82.925731,,,0,,,0
MOUHIGE,2439,W MOUND ST & S HIGHLAND AVE,,39.939598,-83.058527,,,0,,,0
RINBLAW,7954,RINGS RD & BLAZER PKWY,RINGS RD & PAUL BLAZER PKWY,40.084161,-83.130817,,,0,,,0
NORCARN,3776,NORTH STAR RD & CARDIFF RD,,40.004062,-83.048082,,,0,,,0
COUBEN1S,1968,COUNTRY CLUB RD & N BENSON DR,,39.947523,-82.867385,,,0,,,0
SAWSUMS,7219,SAWMILL RD & SUMMER DR,,40.121567,-83.090343,,,0,,,0
OAKMORW,2044,OAK ST & MORRISON AVE,,39.962294,-82.95506,,,0,,,0
MAINORTN,1748,MAIZE RD & NORTHRIDGE RD,,40.041603,-82.988754,,,0,,,0
HIGSCHN,1217,N HIGH ST & E SCHREYER PL,,40.05243,-83.019959,,,0,,,0
HAMROCSS,4390,N HAMILTON RD & ROCKY FORK DR S,,40.009737,-82.867384,,,0,,,0
LAN135N,6529,LANCASTER AVE & ALEXANDER CT,LANCASTER AVE & BLACKLICK XING,39.978717,-82.81227,,,0,,,0
HAMTECN,2526,S HAMILTON RD & TECH CENTER DR,,39.998506,-82.868192,,,0,,,0
OAKMORE,2039,OAK ST & MORRISON AVE,,39.962188,-82.954456,,,0,,,0
ZENNORW,4651,ZENNER DR & NORWALK RD,,39.89611,-82.954518,,,0,,,0
MORWALE,5964,MORSE RD & WALFORD ST,,40.059899,-82.961226,,,0,,,0
BUTDENE,1713,BUTTLES AVE & DENNISON AVE,,39.977305,-83.00866,,,0,,,0
NOROLEW,4889,W NORTH BROADWAY & OLENTANGY RIV RD,,40.03081,-83.030394,,,0,,,0
GRANVLS,5078,GRANVILLE CENTRE,GRANVILLE CTR & 161 KARL SVC RD,40.086175,-82.97638,,,0,,,0
COUMCAN,1960,COUNTRY CLUB RD & MCALLISTER AVE,,39.952953,-82.867238,,,0,,,0
HAMELMS,7631,S HAMILTON & ELMONT PL,HAMILTON RD & ELMONT PL,39.865552,-82.88533,,,0,,,0
5THCLEE,3752,E 5TH AVE & CLEVELAND AVE,,39.986331,-82.988647,,,0,,,0
NORLANNN,5240,NORTHWEST BLVD & W LANE AVE,,40.006998,-83.058049,,,0,,,0
NELMILS,4313,N NELSON RD & MILLBROOK WAY,,39.974056,-82.947493,,,0,,,0
STEMIDN,5734,STELZER RD & MIDDLEMORE DR,,40.030025,-82.910419,,,0,,,0
HIGWORN,4207,N HIGH ST & WORTHINGTON GALENA RD,,40.096349,-83.01748,,,0,,,0
CLEWEBN,1118,CLEVELAND AVE & E WEBER RD,,40.022961,-82.964612,,,0,,,0
MAIBROE,2291,E MAIN ST & S BROADLEIGH RD,,39.956718,-82.922844,,,0,,,0
MOUGLENE,2451,W MOUND ST & GLENWOOD AVE,,39.947672,-83.02852,,,0,,,0
OAKMONE,2028,OAK ST & S MONROE AVE,,39.963,-82.978499,,,0,,,0
MAIMONW,2355,E MAIN ST & S MONROE AVE,,39.958121,-82.978564,,,0,,,0
5100RN,6780,5100 RINGS RD,5100 NATIONWIDE PARKCENTER SV CIR & DIRECTORS BLVD,40.086306,-83.126702,,,0,,,0
STYSANS,7673,STYGLER RD & SANDBURR DR,STYGLER RD N & SANDBURR DR,40.04354,-82.888509,,,0,,,0
HAMSTON,7358,N HAMILTON RD & STONERIDGE LN,,40.051658,-82.863738,,,0,,,0
SINDUBN,7563,SINCLAIR RD & DUBLIN GRANDVILLE RD,SINCLAIR RD & E DUBLIN-GRANVILLE RD,40.087873,-82.997527,,,0,,,0
HIGWORS,1252,N HIGH ST & WORTHINGTON GALENA RD,,40.095437,-83.017751,,,0,,,0
HILROBN,3297,HILLIARD ROME & ROBERTS RD,HILLIARD ROME RD & ROBERTS RD,40.004176,-83.153716,,,0,,,0
HUDOPPE,3600,E HUDSON ST & HOMECROFT DR,,40.014697,-82.99201,,,0,,,0
KENKINN,3830,KENNY RD & KINNEAR RD,,39.998218,-83.034662,,,0,,,0
CLEHOMS,1686,CLEVELAND AVE & HOME ACRE DR,,40.098294,-82.950155,,,0,,,0
NORBRANW,1344,NORTHWEST BLVD & BRANDON RD,,40.003121,-83.057064,,,0,,,0
REFTENW,3230,REFUGEE RD & TENNYSON BLVD,,39.915223,-82.873639,,,0,,,0
STUBROS,3837,STURBRIDGE RD & W BROAD ST,,39.952583,-83.13566,,,0,,,0
HAMWINN,5353,S HAMILTON RD & WINCHESTER PIKE,,39.900438,-82.88191,,,0,,,0
HUDOPPW,3642,E HUDSON ST & GRASMERE AVE,,40.014424,-82.983516,,,0,,,0
PULPOLS,6271,PULSAR PL & POLARIS PKWY,,40.141668,-82.966911,,,0,,,0
CLEHOMN,3074,CLEVELAND AVE & HOME ACRE DR,,40.097983,-82.949969,,,0,,,0
TOWGRAE,2065,E TOWN ST & S GRANT AVE,,39.959899,-82.989878,,,0,,,0
GRE375S,5292,3755 GREAT SOUTHERN SVC RD,3755 GREAT SOUTHERN SERVICE RD,39.885607,-83.002326,,,0,,,0
MORWATSE,5839,MORRISON RD & WATERBURY CT,,40.008192,-82.864954,,,0,,,0
GODLANSE,3454,GODOWN RD & LANGLAND DR,,40.061304,-83.053138,,,0,,,0
WESPARIB,3097,WESTERVILLE RD & PARIS BLVD,,40.092734,-82.925389,,,0,,,0
REFTENE,3243,REFUGEE RD & TENNYSON BLVD,,39.915055,-82.873509,,,0,,,0
NORTER3,440,SPRING ST TERMINAL BAY 3,COTA NORTH TERMINAL ENTRANCE SVC & W SPRING ST,39.965808,-83.002412,,,0,,,0
HAMVISS,7360,N HAMILTON RD & VISTA DR,,40.048148,-82.864376,,,0,,,0
RIVNOTS,5499,RIVERSIDE DR & NOTTINGHAM RD,,40.026313,-83.091374,,,0,,,0
POLAFRE,7891,POLARIS PKWY & AFRICA RD,,40.146046,-82.938503,,,0,,,0
BRO20TW,2547,E BROAD ST & N 20TH ST,,39.965381,-82.9741,,,0,,,0
HIGCARS,5979,N HIGH ST & CAREN AVE,,40.105398,-83.017174,,,0,,,0
TAYGREN,7615,TAYLOR AVE & GREENWAY AVE,,39.974335,-82.961037,,,0,,,0
5THHAMSW,5724,E 5TH AVE & N HAMILTON RD,,39.989626,-82.869349,,,0,,,0
MCCMCCW,7500,MCCUTCHEON RD & MCCUTCHEON PL,MCCUTCHEON RD & MCCUTCHEON CROSSING DR,40.034154,-82.927993,,,0,,,0
BROHOFE,2476,E BROAD ST & HOFFMAN AVE,,39.965204,-82.973972,,,0,,,0
POLAFRW,7476,POLARIS PKWY & AFRICA RD,POLARIS PKWY & REPUBLIC AVE,40.146421,-82.938409,,,0,,,0
CRE320W,7441,3205 CREEKSIDE PKWY,CREEKSIDE PKWY & TOY RD,39.852704,-82.943004,,,0,,,0
JAMMOUS,4776,S JAMES RD & E MOUND ST,,39.95381,-82.915138,,,0,,,0
LIVBRIE,3192,E LIVINGSTON AVE & BRICE RD,,39.941991,-82.830317,,,0,,,0
RIVNOTN,5719,RIVERSIDE DR & NOTTINGHAM RD,,40.026338,-83.091064,,,0,,,0
COL17THS,6695,COLLEGE RD & 17TH AVE,,40.00173,-83.010684,,,0,,,0
OHITHUS,3579,S OHIO AVE & THURMAN AVE,,39.938458,-82.972388,,,0,,,0
PARMYRN,5411,PARKWOOD AVE & MYRTLE AVE,,40.01717,-82.956122,,,0,,,0
MOR170W,5968,1700 MORSE RD,,40.060593,-82.974714,,,0,,,0
REFCOUW,3233,REFUGEE RD & COURTRIGHT RD,,39.916572,-82.897403,,,0,,,0
BRE5THN,6763,BRENTNELL AVE & 5TH AVE,,39.986356,-82.950219,,,0,,,0
MAIGRANW,2358,E MAIN ST & S GRANT AVE,,39.957406,-82.989203,,,0,,,0
5TH4301W,3205,4301 E 5TH AVE,,39.987441,-82.88947,,,0,,,0
PARMYRS,5603,PARKWOOD AVE & MYRTLE AVE,,40.01633,-82.956329,,,0,,,0
3RDSTAS,4115,S 3RD ST & E STATE ST,,39.960646,-82.99773,,,0,,,0
REFCOUE,3067,REFUGEE RD & COURTRIGHT RD,,39.916357,-82.897176,,,0,,,0
MCGBRIN,1733,MCGUFFEY RD & BRIARWOOD AVE,MCGUFFEY RD & REPUBLIC AVE,40.016961,-82.981378,,,0,,,0
161NOAKE,4967,STATE ROUTE 161 & OAK KNOLL DR,STATE RTE 161 N SVC RD & GREAT WOODS BLVD,40.083415,-82.941532,,,0,,,0
HARHYDS,2967,HARRISBURG PIKE & HYDE RD,,39.908832,-83.071707,,,0,,,0
LIVQUAE,4097,E LIVINGSTON AVE & QUARRY RIDGE DR,,39.942963,-82.841065,,,0,,,0
FREBERW,3541,FREBIS AVE & BERKELEY RD,,39.934365,-82.958607,,,0,,,0
HIGLONS,4101,N HIGH ST & W LONG ST,N HIGH ST & E LONG ST,39.965157,-83.001322,,,0,,,0
GATAMAN,7950,GATEWAY CT & AMAZON DR,,39.848742,-82.927741,,,0,,,0
HARHYDN,2999,HARRISBURG PIKE & HYDE RD,,39.908845,-83.071358,,,0,,,0
CLEPEGN,1517,CLEVELAND AVE & PEGG RD,,40.044539,-82.958299,,,0,,,0
LIVQUAW,1879,E LIVINGSTON AVE & QUARRY RIDGE DR,,39.94309,-82.840758,,,0,,,0
LEN2NDE,5744,LENNOX BUS STOP SVC RD,LENNOX BUS STOP SVC RD & LENNOX FRONT SERVICE RD,39.992844,-83.027034,,,0,,,0
KENMCCS,3482,KENNY RD & MCCOY RD,,40.040292,-83.050605,,,0,,,0
MCGBRIS,1814,MCGUFFEY RD & BRIARWOOD AVE,,40.01696,-82.981591,,,0,,,0
FREBERE,3585,FREBIS AVE & BERKELEY RD,,39.934236,-82.958428,,,0,,,0
AMBKILS,3982,AMBLESIDE DR & KILDALE SQ S,,40.096374,-82.982102,,,0,,,0
MAIMILW,3760,W MAIN ST & MILLFIELD AVE,,40.125049,-82.954785,,,0,,,0
MAIWEYW,2326,E MAIN ST & S WEYANT AVE,WEYANT LOOP SVC & E MAIN ST,39.956474,-82.908408,,,0,,,0
JAMASTS,4785,S JAMES RD & ASTOR AVE,,39.951837,-82.915322,,,0,,,0
4THCLIN,1434,N 4TH ST & CLINTON ST,,40.013338,-82.997682,,,0,,,0
HUDDREE,7788,E HUDSON ST & DRESDEN ST,,40.013809,-82.972296,,,0,,,0
SCHHICW,7052,SCHROCK RD & HICKORY CREEK LN,,40.107081,-82.966461,,,0,,,0
MAIMILE,3737,W MAIN ST & MILLFIELD AVE,,40.124931,-82.954836,,,0,,,0
JAMASTN,4764,S JAMES RD & ASTOR AVE,,39.951413,-82.915201,,,0,,,0
MAIWEYE,2296,E MAIN ST & S WEYANT AVE,,39.956327,-82.908654,,,0,,,0
LIVVILE,1950,E LIVINGSTON AVE & VILARDO LN,,39.945503,-82.89169,,,0,,,0
KEN205N,1153,2050 KENNY RD,,40.001211,-83.034392,,,0,,,0
HUDDREW,7786,E HUDSON ST & DRESDEN ST,,40.013988,-82.972698,,,0,,,0
WHIANNE,2755,E WHITTIER ST & ANN ST,,39.943996,-82.980743,,,0,,,0
SUM2NDS,1513,SUMMIT ST & E 2ND AVE,,39.982279,-83.00125,,,0,,,0
KIOSWAS,3624,KIOKA AVE & SWANSEA RD,,40.023715,-83.084503,,,0,,,0
LIVBULW,1086,E LIVINGSTON AVE & BULEN AVE,,39.948836,-82.951647,,,0,,,0
HIG13TS,1296,N HIGH ST & E 13TH AVE,,39.998105,-83.00777,,,0,,,0
CHAMITN,3547,S CHAMPION AVE & E MITHOFF ST,,39.937623,-82.970934,,,0,,,0
HIG13TN,1189,N HIGH ST & E 13TH AVE,,39.997729,-83.007506,,,0,,,0
BROHAGW,2643,W BROAD ST & N HAGUE AVE,,39.954999,-83.074317,,,0,,,0
HAMCLIN,1730,HAMILTON AVE & CLINTON ST,,40.011975,-82.979106,,,0,,,0
KOEACRE,2124,1130 KOEBEL RD,1130 KOEBEL RD & LOCKBOURNE RD,39.912571,-82.965484,,,0,,,0
MOUGRAHW,1674,MOUNT VERNON AVE & GRAHAM ST,,39.973811,-82.96405,,,0,,,0
MORELKW,1464,MORSE RD & ELKS DR,,40.062147,-83.010863,,,0,,,0
